[{"locationID":2035,"name":"107th Street Elementary School, Teachers Development Center","hours":"11\/02 - 11\/04: 10AM - 7PM, 11\/05: 7AM - 8PM","votingPeriod":4,"latitude":33.939413,"longitude":-118.272195},{"locationID":14483,"name":"10th Street Elementary School, Auditorium","hours":"11\/02 - 11\/04: 10AM - 7PM, 11\/05: 7AM - 8PM","votingPeriod":4,"latitude":34.048471,"longitude":-118.27315},{"locationID":12765,"name":"4th Street Elementary School, Auditorium","hours":"11\/02 - 11\/04: 10AM - 7PM, 11\/05: 7AM - 8PM","votingPeriod":4,"latitude":34.028465,"longitude":-118.15333},{"locationID":10762,"name":"54th Street Elementary School, Auditorium","hours":"11\/02 - 11\/04: 10AM - 7PM, 11\/05: 7AM - 8PM","votingPeriod":4,"latitude":33.992574,"longitude":-118.343547},{"locationID":12346,"name":"93rd Street Elementary School, Auditorium","hours":"11\/02 - 11\/04: 10AM - 7PM, 11\/05: 7AM - 8PM","votingPeriod":4,"latitude":33.951443,"longitude":-118.267611},{"locationID":123,"name":"A C Bilbrew Library, Meeting Room","hours":"10\/26 - 11\/04: 10AM - 7PM, 11\/05: 7AM - 8PM","votingPeriod":11,"latitude":33.915937,"longitude":-118.272369},{"locationID":5194,"name":"A C Stelle Middle School, Multi-Purpose Room","hours":"11\/02 - 11\/04: 10AM - 7PM, 11\/05: 7AM - 8PM","votingPeriod":4,"latitude":34.142644,"longitude":-118.614247},{"locationID":22374,"name":"A V Fair and Event Center, Van Dam Pavillion","hours":"11\/02 - 11\/04: 10AM - 7PM, 11\/05: 7AM - 8PM","votingPeriod":4,"latitude":34.719257,"longitude":-118.176865},{"locationID":85,"name":"Acton Agua Dulce Library, Meeting Room","hours":"11\/02 - 11\/04: 10AM - 7PM, 11\/05: 7AM - 8PM","votingPeriod":4,"latitude":34.494922,"longitude":-118.197506},{"locationID":12521,"name":"Acton Community Club, Clubhouse","hours":"11\/02 - 11\/04: 10AM - 7PM, 11\/05: 7AM - 8PM","votingPeriod":4,"latitude":34.468751,"longitude":-118.19899},{"locationID":14157,"name":"Adat Ari El, Jacoby Social and Sisterhood Lounge","hours":"11\/02 - 11\/04: 10AM - 7PM, 11\/05: 7AM - 8PM","votingPeriod":4,"latitude":34.171851,"longitude":-118.395275},{"locationID":6769,"name":"Adventure Park, Gymnasium","hours":"10\/26 - 11\/04: 10AM - 7PM, 11\/05: 7AM - 8PM","votingPeriod":11,"latitude":33.942448,"longitude":-118.036963},{"locationID":23150,"name":"African American Advisory Alliance, Cultural Center Community Space","hours":"11\/02 - 11\/04: 10AM - 7PM, 11\/05: 7AM - 8PM","votingPeriod":4,"latitude":34.057594,"longitude":-117.753569},{"locationID":12693,"name":"Agoura Hills Civic Center, Community Room","hours":"11\/02 - 11\/04: 10AM - 7PM, 11\/05: 7AM - 8PM","votingPeriod":4,"latitude":34.144529,"longitude":-118.776152},{"locationID":13375,"name":"Ahmanson Senior Center, Ballroom","hours":"10\/26 - 11\/04: 10AM - 7PM, 11\/05: 7AM - 8PM","votingPeriod":11,"latitude":34.011524,"longitude":-118.289939},{"locationID":5925,"name":"Alexandria Elementary School, Auditorium","hours":"11\/02 - 11\/04: 10AM - 7PM, 11\/05: 7AM - 8PM","votingPeriod":4,"latitude":34.077885,"longitude":-118.299229},{"locationID":13397,"name":"Alfred B Nobel Charter Middle School, Parent Center Room 2","hours":"11\/02 - 11\/04: 10AM - 7PM, 11\/05: 7AM - 8PM","votingPeriod":4,"latitude":34.251358,"longitude":-118.552976},{"locationID":13241,"name":"Algin Sutton Recreation Center, Classroom","hours":"11\/02 - 11\/04: 10AM - 7PM, 11\/05: 7AM - 8PM","votingPeriod":4,"latitude":33.957039,"longitude":-118.286415},{"locationID":203,"name":"Alhambra Civic Center Library, Reese Hall","hours":"11\/02 - 11\/04: 10AM - 7PM, 11\/05: 7AM - 8PM","votingPeriod":4,"latitude":34.093012,"longitude":-118.12746},{"locationID":17616,"name":"All Saints Episcopal Church, Lower Sweetland Hall","hours":"11\/02 - 11\/04: 10AM - 7PM, 11\/05: 7AM - 8PM","votingPeriod":4,"latitude":34.070772,"longitude":-118.405498},{"locationID":12864,"name":"Alta Vista Park, Community Center","hours":"11\/02 - 11\/04: 10AM - 7PM, 11\/05: 7AM - 8PM","votingPeriod":4,"latitude":33.831122,"longitude":-118.379147},{"locationID":24606,"name":"Altadena Community Center, Community Room","hours":"11\/02 - 11\/04: 10AM - 7PM, 11\/05: 7AM - 8PM","votingPeriod":4,"latitude":34.189756,"longitude":-118.13329},{"locationID":18613,"name":"Alternative Education Center, Multi-Purpose Room","hours":"11\/02 - 11\/04: 10AM - 7PM, 11\/05: 7AM - 8PM","votingPeriod":4,"latitude":33.898674,"longitude":-117.989738},{"locationID":18184,"name":"American Legion Post 314, Main Hall","hours":"11\/02 - 11\/04: 10AM - 7PM, 11\/05: 7AM - 8PM","votingPeriod":4,"latitude":33.903638,"longitude":-118.343346},{"locationID":22133,"name":"Andasol Avenue Elementary School, Auditorium","hours":"11\/02 - 11\/04: 10AM - 7PM, 11\/05: 7AM - 8PM","votingPeriod":4,"latitude":34.254845,"longitude":-118.515062},{"locationID":13752,"name":"Anderson Munger Family YMCA, Multi-Purpose Room","hours":"10\/26 - 11\/04: 10AM - 7PM, 11\/05: 7AM - 8PM","votingPeriod":11,"latitude":34.069208,"longitude":-118.308424},{"locationID":24556,"name":"Anderson Park, Classroom and Multi-Purpose Room","hours":"11\/02 - 11\/04: 10AM - 7PM, 11\/05: 7AM - 8PM","votingPeriod":4,"latitude":33.857878,"longitude":-118.235323},{"locationID":3726,"name":"Angelica Lutheran Church, Auditorium","hours":"11\/02 - 11\/04: 10AM - 7PM, 11\/05: 7AM - 8PM","votingPeriod":4,"latitude":34.044161,"longitude":-118.279911},{"locationID":18637,"name":"Animo Ellen Ochoa Charter Middle School, Multi-Purpose Room","hours":"11\/02 - 11\/04: 10AM - 7PM, 11\/05: 7AM - 8PM","votingPeriod":4,"latitude":34.041351,"longitude":-118.171576},{"locationID":5297,"name":"Antelope Valley Church, AV Reach","hours":"11\/02 - 11\/04: 10AM - 7PM, 11\/05: 7AM - 8PM","votingPeriod":4,"latitude":34.651857,"longitude":-118.199616},{"locationID":24464,"name":"Antelope Valley College, SCT Room 150 Student Lounge","hours":"11\/02 - 11\/04: 10AM - 7PM, 11\/05: 7AM - 8PM","votingPeriod":4,"latitude":34.676214,"longitude":-118.18609},{"locationID":206,"name":"Arcadia Public Library, Auditorium","hours":"11\/02 - 11\/04: 10AM - 7PM, 11\/05: 7AM - 8PM","votingPeriod":4,"latitude":34.128414,"longitude":-118.031649},{"locationID":5449,"name":"Armenian Church of the Nazarene, Fellowship Hall","hours":"11\/02 - 11\/04: 10AM - 7PM, 11\/05: 7AM - 8PM","votingPeriod":4,"latitude":34.135056,"longitude":-118.251425},{"locationID":12803,"name":"Armenian Cilicia Evangelical Church, Derian Hall","hours":"10\/26 - 11\/04: 10AM - 7PM, 11\/05: 7AM - 8PM","votingPeriod":11,"latitude":34.140211,"longitude":-118.099067},{"locationID":9588,"name":"Arroyo Seco Library, Meeting Room","hours":"10\/26 - 11\/04: 10AM - 7PM, 11\/05: 7AM - 8PM","votingPeriod":11,"latitude":34.113904,"longitude":-118.186322},{"locationID":13275,"name":"Artesia Library, Meeting Room","hours":"10\/26 - 11\/04: 10AM - 7PM, 11\/05: 7AM - 8PM","votingPeriod":11,"latitude":33.86044,"longitude":-118.077315},{"locationID":24510,"name":"Arts in Action Charter Elem School, Rooms 102 and 103","hours":"11\/02 - 11\/04: 10AM - 7PM, 11\/05: 7AM - 8PM","votingPeriod":4,"latitude":34.032113,"longitude":-118.154935},{"locationID":24511,"name":"Arts in Action Charter Middle School, Rooms 104 and 106","hours":"11\/02 - 11\/04: 10AM - 7PM, 11\/05: 7AM - 8PM","votingPeriod":4,"latitude":34.023239,"longitude":-118.165674},{"locationID":2569,"name":"Atwater Avenue Elementary School, Auditorium","hours":"11\/02 - 11\/04: 10AM - 7PM, 11\/05: 7AM - 8PM","votingPeriod":4,"latitude":34.114848,"longitude":-118.253903},{"locationID":14525,"name":"Augustus Hawkins High School, Small Gymnasium","hours":"11\/02 - 11\/04: 10AM - 7PM, 11\/05: 7AM - 8PM","votingPeriod":4,"latitude":33.985777,"longitude":-118.288076},{"locationID":26852,"name":"AVA Studio City, Chill Lounge","hours":"11\/02 - 11\/04: 10AM - 7PM, 11\/05: 7AM - 8PM","votingPeriod":4,"latitude":34.142142,"longitude":-118.369806},{"locationID":12984,"name":"Avalon Carver Community Center, Auditorium","hours":"11\/02 - 11\/04: 10AM - 7PM, 11\/05: 7AM - 8PM","votingPeriod":4,"latitude":33.998173,"longitude":-118.265024},{"locationID":5479,"name":"AYAC Mesdjian Center, Banquet Hall","hours":"10\/26 - 11\/04: 10AM - 7PM, 11\/05: 7AM - 8PM","votingPeriod":11,"latitude":34.123582,"longitude":-118.253823},{"locationID":1469,"name":"Baldwin Hills Crenshaw, Community Room Level 1","hours":"10\/26 - 11\/04: 10AM - 7PM, 11\/05: 7AM - 8PM","votingPeriod":11,"latitude":34.009954,"longitude":-118.336585},{"locationID":272,"name":"Baldwin Park Arts and Recreation Center, Multi-Purpose Room","hours":"11\/02 - 11\/04: 10AM - 7PM, 11\/05: 7AM - 8PM","votingPeriod":4,"latitude":34.084979,"longitude":-117.959549},{"locationID":15011,"name":"Baldwin Park Performing Arts Center, Lobby","hours":"11\/02 - 11\/04: 10AM - 7PM, 11\/05: 7AM - 8PM","votingPeriod":4,"latitude":34.096348,"longitude":-117.960175},{"locationID":14868,"name":"Bancroft Middle School, Auditorium","hours":"11\/02 - 11\/04: 10AM - 7PM, 11\/05: 7AM - 8PM","votingPeriod":4,"latitude":34.087371,"longitude":-118.336813},{"locationID":8746,"name":"Barrio Action Youth and Family Center, Gymnasium","hours":"10\/26 - 11\/04: 10AM - 7PM, 11\/05: 7AM - 8PM","votingPeriod":11,"latitude":34.087311,"longitude":-118.176292},{"locationID":12366,"name":"Bassett Adult School, Auditorium","hours":"11\/02 - 11\/04: 10AM - 7PM, 11\/05: 7AM - 8PM","votingPeriod":4,"latitude":34.052017,"longitude":-117.969496},{"locationID":6051,"name":"Bassett Street Elementary School, Auditorium","hours":"11\/02 - 11\/04: 10AM - 7PM, 11\/05: 7AM - 8PM","votingPeriod":4,"latitude":34.195612,"longitude":-118.476724},{"locationID":310,"name":"Bateman Hall, Thompson Auditorium","hours":"10\/26 - 11\/04: 10AM - 7PM, 11\/05: 7AM - 8PM","votingPeriod":11,"latitude":33.925143,"longitude":-118.198531},{"locationID":12532,"name":"Bay Shore Comm Congregational Church, Gymnasium","hours":"11\/02 - 11\/04: 10AM - 7PM, 11\/05: 7AM - 8PM","votingPeriod":4,"latitude":33.763003,"longitude":-118.1339},{"locationID":10889,"name":"Beach Cities Health Dist Admin Office, Redondo and Beach Cities Lower Level","hours":"11\/02 - 11\/04: 10AM - 7PM, 11\/05: 7AM - 8PM","votingPeriod":4,"latitude":33.853058,"longitude":-118.379031},{"locationID":416,"name":"Bell Gardens Veterans Park, Ross Hall Auditorium","hours":"10\/26 - 11\/04: 10AM - 7PM, 11\/05: 7AM - 8PM","votingPeriod":11,"latitude":33.968148,"longitude":-118.144841},{"locationID":4424,"name":"Belmont High School, Auditorium","hours":"11\/02 - 11\/04: 10AM - 7PM, 11\/05: 7AM - 8PM","votingPeriod":4,"latitude":34.061404,"longitude":-118.262754},{"locationID":20571,"name":"Berendo Middle School, Auditorium","hours":"11\/02 - 11\/04: 10AM - 7PM, 11\/05: 7AM - 8PM","votingPeriod":4,"latitude":34.049327,"longitude":-118.294313},{"locationID":17151,"name":"Bernstein High School, Library","hours":"11\/02 - 11\/04: 10AM - 7PM, 11\/05: 7AM - 8PM","votingPeriod":4,"latitude":34.095389,"longitude":-118.31387},{"locationID":11752,"name":"Bethel AME Church LA, AA Morgan Fellowship Hall","hours":"11\/02 - 11\/04: 10AM - 7PM, 11\/05: 7AM - 8PM","votingPeriod":4,"latitude":33.967076,"longitude":-118.308769},{"locationID":13573,"name":"Beverly Hills City Hall, Municipal Gallery 2nd Floor","hours":"10\/26 - 11\/04: 10AM - 7PM, 11\/05: 7AM - 8PM","votingPeriod":11,"latitude":34.07312,"longitude":-118.400381},{"locationID":17645,"name":"Billie Jean King Main Library, Meeting Room A","hours":"11\/02 - 11\/04: 10AM - 7PM, 11\/05: 7AM - 8PM","votingPeriod":4,"latitude":33.769039,"longitude":-118.194348},{"locationID":21770,"name":"BioscienceLA, Seminar Room","hours":"11\/02 - 11\/04: 10AM - 7PM, 11\/05: 7AM - 8PM","votingPeriod":4,"latitude":34.013223,"longitude":-118.401496},{"locationID":13593,"name":"Biscailuz Park, Activity Room","hours":"11\/02 - 11\/04: 10AM - 7PM, 11\/05: 7AM - 8PM","votingPeriod":4,"latitude":33.852509,"longitude":-118.160934},{"locationID":14870,"name":"Bixby Park, Social Hall 1","hours":"11\/02 - 11\/04: 10AM - 7PM, 11\/05: 7AM - 8PM","votingPeriod":4,"latitude":33.765998,"longitude":-118.167351},{"locationID":21010,"name":"Bonita Center for the Arts, Lobby","hours":"11\/02 - 11\/04: 10AM - 7PM, 11\/05: 7AM - 8PM","votingPeriod":4,"latitude":34.098111,"longitude":-117.825589},{"locationID":21024,"name":"Boulders at the Ranch One, Clubhouse","hours":"11\/02 - 11\/04: 10AM - 7PM, 11\/05: 7AM - 8PM","votingPeriod":4,"latitude":34.621157,"longitude":-118.220796},{"locationID":13304,"name":"Bouquet Canyon Education Center, Multi-Purpose Room","hours":"11\/02 - 11\/04: 10AM - 7PM, 11\/05: 7AM - 8PM","votingPeriod":4,"latitude":34.452696,"longitude":-118.503501},{"locationID":10834,"name":"Boyle Heights Senior Center, Art Room","hours":"10\/26 - 11\/04: 10AM - 7PM, 11\/05: 7AM - 8PM","votingPeriod":11,"latitude":34.039033,"longitude":-118.20538},{"locationID":548,"name":"Boys and Girls Club of Ramona Gardens, Gymnasium","hours":"11\/02 - 11\/04: 10AM - 7PM, 11\/05: 7AM - 8PM","votingPeriod":4,"latitude":34.056883,"longitude":-118.194977},{"locationID":26942,"name":"Braille Institute of Los Angeles, Weingart North","hours":"11\/02 - 11\/04: 10AM - 7PM, 11\/05: 7AM - 8PM","votingPeriod":4,"latitude":34.084804,"longitude":-118.29262},{"locationID":6990,"name":"Brainard Avenue Elementary School, Auditorium","hours":"11\/02 - 11\/04: 10AM - 7PM, 11\/05: 7AM - 8PM","votingPeriod":4,"latitude":34.277376,"longitude":-118.363734},{"locationID":4870,"name":"Brand Studios, Studio 1 and 2","hours":"11\/02 - 11\/04: 10AM - 7PM, 11\/05: 7AM - 8PM","votingPeriod":4,"latitude":34.182556,"longitude":-118.276604},{"locationID":13838,"name":"Brenda Villa Aquatic Center, Meeting Room","hours":"10\/26 - 11\/04: 10AM - 7PM, 11\/05: 7AM - 8PM","votingPeriod":11,"latitude":34.002787,"longitude":-118.156269},{"locationID":12389,"name":"Brentwood Science Magnet School, Auditorium","hours":"11\/02 - 11\/04: 10AM - 7PM, 11\/05: 7AM - 8PM","votingPeriod":4,"latitude":34.05033,"longitude":-118.474184},{"locationID":3776,"name":"Bridges Academy, Auditorium","hours":"11\/02 - 11\/04: 10AM - 7PM, 11\/05: 7AM - 8PM","votingPeriod":4,"latitude":34.141497,"longitude":-118.394808},{"locationID":214,"name":"Bristow Park Community Center, Meeting Room","hours":"11\/02 - 11\/04: 10AM - 7PM, 11\/05: 7AM - 8PM","votingPeriod":4,"latitude":34.013154,"longitude":-118.169232},{"locationID":14149,"name":"Bud Carson Middle School, Gymnasium","hours":"11\/02 - 11\/04: 10AM - 7PM, 11\/05: 7AM - 8PM","votingPeriod":4,"latitude":33.906289,"longitude":-118.334892},{"locationID":9859,"name":"Buena Vista Branch Library, Meeting Room","hours":"11\/02 - 11\/04: 10AM - 7PM, 11\/05: 7AM - 8PM","votingPeriod":4,"latitude":34.164117,"longitude":-118.330495},{"locationID":4490,"name":"Burrell-MacDonald Park, Multi-Purpose Room","hours":"11\/02 - 11\/04: 10AM - 7PM, 11\/05: 7AM - 8PM","votingPeriod":4,"latitude":33.886059,"longitude":-118.255062},{"locationID":13359,"name":"Burton Chace Park, Community Building","hours":"11\/02 - 11\/04: 10AM - 7PM, 11\/05: 7AM - 8PM","votingPeriod":4,"latitude":33.977383,"longitude":-118.444852},{"locationID":22157,"name":"Bushnell Way Elementary School, Auditorium","hours":"11\/02 - 11\/04: 10AM - 7PM, 11\/05: 7AM - 8PM","votingPeriod":4,"latitude":34.102337,"longitude":-118.189034},{"locationID":24486,"name":"C Norman Transgender Empowerment Ctr, Marsha P-Sylvia R Community Room","hours":"11\/02 - 11\/04: 10AM - 7PM, 11\/05: 7AM - 8PM","votingPeriod":4,"latitude":34.08882,"longitude":-118.35144},{"locationID":11786,"name":"CA State Polytechnic University Pomona, Building 35 Room 2135 Ursa Minor","hours":"11\/02 - 11\/04: 10AM - 7PM, 11\/05: 7AM - 8PM","votingPeriod":4,"latitude":34.055815,"longitude":-117.821048},{"locationID":26923,"name":"Cal State LA University Student Union, 308A-B Los Angeles Rooms A-B","hours":"11\/02 - 11\/04: 10AM - 7PM, 11\/05: 7AM - 8PM","votingPeriod":4,"latitude":34.067999,"longitude":-118.168874},{"locationID":3698,"name":"Cal State University Dominguez Hills, EE-1213 Auditorium","hours":"11\/02 - 11\/04: 10AM - 7PM, 11\/05: 7AM - 8PM","votingPeriod":4,"latitude":33.865482,"longitude":-118.258791},{"locationID":19922,"name":"Cal State University Northridge, Redwood Hall 180","hours":"10\/26 - 11\/04: 10AM - 7PM, 11\/05: 7AM - 8PM","votingPeriod":11,"latitude":34.241472,"longitude":-118.526512},{"locationID":20954,"name":"Cambodian-American Utd Methodist Church, Fellowship Hall and Sunday Classroom","hours":"11\/02 - 11\/04: 10AM - 7PM, 11\/05: 7AM - 8PM","votingPeriod":4,"latitude":33.78821,"longitude":-118.158773},{"locationID":21527,"name":"Cambria Hotel Calabasas, Meeting Room","hours":"11\/02 - 11\/04: 10AM - 7PM, 11\/05: 7AM - 8PM","votingPeriod":4,"latitude":34.14606,"longitude":-118.697223},{"locationID":26943,"name":"Cambria Hotel LAX, Hearst I and II","hours":"10\/26 - 11\/04: 10AM - 7PM, 11\/05: 7AM - 8PM","votingPeriod":11,"latitude":33.917621,"longitude":-118.392345},{"locationID":8226,"name":"Cameron Park Community Center, Multi-Purpose Room","hours":"11\/02 - 11\/04: 10AM - 7PM, 11\/05: 7AM - 8PM","votingPeriod":4,"latitude":34.062018,"longitude":-117.918083},{"locationID":14278,"name":"Canoga Park Elementary School, Auditorium","hours":"11\/02 - 11\/04: 10AM - 7PM, 11\/05: 7AM - 8PM","votingPeriod":4,"latitude":34.20632,"longitude":-118.605631},{"locationID":20891,"name":"Canyon Country Jo Anne Darcy Library, Community Room","hours":"11\/02 - 11\/04: 10AM - 7PM, 11\/05: 7AM - 8PM","votingPeriod":4,"latitude":34.416469,"longitude":-118.459046},{"locationID":17511,"name":"Canyon Country Park, East and West Rooms","hours":"10\/26 - 11\/04: 10AM - 7PM, 11\/05: 7AM - 8PM","votingPeriod":11,"latitude":34.418731,"longitude":-118.441809},{"locationID":10948,"name":"Carmelitos Community Center, Multi-Purpose Room","hours":"11\/02 - 11\/04: 10AM - 7PM, 11\/05: 7AM - 8PM","votingPeriod":4,"latitude":33.848905,"longitude":-118.181892},{"locationID":27120,"name":"Carolyn Rosas Park, Fitness Room","hours":"10\/26 - 11\/04: 10AM - 7PM, 11\/05: 7AM - 8PM","votingPeriod":11,"latitude":33.979498,"longitude":-117.902719},{"locationID":23278,"name":"Carson Civic Center, East Wing Activity Room","hours":"11\/02 - 11\/04: 10AM - 7PM, 11\/05: 7AM - 8PM","votingPeriod":4,"latitude":33.832964,"longitude":-118.261335},{"locationID":7524,"name":"Castaic Middle School, Multi-Purpose Room","hours":"11\/02 - 11\/04: 10AM - 7PM, 11\/05: 7AM - 8PM","votingPeriod":4,"latitude":34.471205,"longitude":-118.640164},{"locationID":15023,"name":"Castaic Regional Sports Complex, Community Room","hours":"10\/26 - 11\/04: 10AM - 7PM, 11\/05: 7AM - 8PM","votingPeriod":11,"latitude":34.48595,"longitude":-118.614759},{"locationID":17089,"name":"Castaic Union School District, Boardroom","hours":"11\/02 - 11\/04: 10AM - 7PM, 11\/05: 7AM - 8PM","votingPeriod":4,"latitude":34.441165,"longitude":-118.626695},{"locationID":6404,"name":"Castelar Elementary School, Auditorium","hours":"11\/02 - 11\/04: 10AM - 7PM, 11\/05: 7AM - 8PM","votingPeriod":4,"latitude":34.064233,"longitude":-118.239924},{"locationID":9851,"name":"Castlebay Lane Elementary School, Performing Arts Center","hours":"11\/02 - 11\/04: 10AM - 7PM, 11\/05: 7AM - 8PM","votingPeriod":4,"latitude":34.29399,"longitude":-118.547689},{"locationID":24803,"name":"Catalina Isl Conservancy Trailhead Ctr, Gallery","hours":"11\/02 - 11\/04: 10AM - 7PM, 11\/05: 7AM - 8PM","votingPeriod":4,"latitude":33.342736,"longitude":-118.323519},{"locationID":12264,"name":"Center Middle School, Auditorium","hours":"11\/02 - 11\/04: 10AM - 7PM, 11\/05: 7AM - 8PM","votingPeriod":4,"latitude":34.112379,"longitude":-117.898511},{"locationID":14153,"name":"Central City Neighborhood Partners, Atrium","hours":"10\/26 - 11\/04: 10AM - 7PM, 11\/05: 7AM - 8PM","votingPeriod":11,"latitude":34.054874,"longitude":-118.261747},{"locationID":14054,"name":"Central Lutheran Church, Fellowship Hall","hours":"11\/02 - 11\/04: 10AM - 7PM, 11\/05: 7AM - 8PM","votingPeriod":4,"latitude":34.187186,"longitude":-118.44463},{"locationID":13003,"name":"Centro Cristiano De La Fe, Dining Room","hours":"10\/26 - 11\/04: 10AM - 7PM, 11\/05: 7AM - 8PM","votingPeriod":11,"latitude":34.061618,"longitude":-117.752952},{"locationID":17450,"name":"Century Park Elementary School, Auditorium","hours":"11\/02 - 11\/04: 10AM - 7PM, 11\/05: 7AM - 8PM","votingPeriod":4,"latitude":33.93696,"longitude":-118.31916},{"locationID":9373,"name":"Century Villages at Cabrillo, Social Hall","hours":"11\/02 - 11\/04: 10AM - 7PM, 11\/05: 7AM - 8PM","votingPeriod":4,"latitude":33.792347,"longitude":-118.222461},{"locationID":11767,"name":"Cerritos College, Conference Center","hours":"11\/02 - 11\/04: 10AM - 7PM, 11\/05: 7AM - 8PM","votingPeriod":4,"latitude":33.885747,"longitude":-118.094759},{"locationID":11750,"name":"Chaparral Middle School, Multi-Purpose Room","hours":"11\/02 - 11\/04: 10AM - 7PM, 11\/05: 7AM - 8PM","votingPeriod":4,"latitude":33.995649,"longitude":-117.818388},{"locationID":15035,"name":"Charles Drew Middle School, Gymnasium","hours":"11\/02 - 11\/04: 10AM - 7PM, 11\/05: 7AM - 8PM","votingPeriod":4,"latitude":33.961061,"longitude":-118.248106},{"locationID":6896,"name":"Charnock Road Elementary School, Auditorium","hours":"11\/02 - 11\/04: 10AM - 7PM, 11\/05: 7AM - 8PM","votingPeriod":4,"latitude":34.017373,"longitude":-118.41973},{"locationID":21556,"name":"Charter Oak Adult Education, Multi-Purpose Room","hours":"11\/02 - 11\/04: 10AM - 7PM, 11\/05: 7AM - 8PM","votingPeriod":4,"latitude":34.083228,"longitude":-117.86753},{"locationID":14290,"name":"Chatsworth Park Urban Planning Magnet, Auditorium","hours":"11\/02 - 11\/04: 10AM - 7PM, 11\/05: 7AM - 8PM","votingPeriod":4,"latitude":34.257865,"longitude":-118.606931},{"locationID":9710,"name":"Cheremoya Avenue Elementary School, Auditorium","hours":"11\/02 - 11\/04: 10AM - 7PM, 11\/05: 7AM - 8PM","votingPeriod":4,"latitude":34.10554,"longitude":-118.320658},{"locationID":12420,"name":"Chet Holifield Park, Community Room","hours":"11\/02 - 11\/04: 10AM - 7PM, 11\/05: 7AM - 8PM","votingPeriod":4,"latitude":33.992629,"longitude":-118.119826},{"locationID":6,"name":"Chevy Chase Branch Library, Main Room","hours":"11\/02 - 11\/04: 10AM - 7PM, 11\/05: 7AM - 8PM","votingPeriod":4,"latitude":34.173822,"longitude":-118.199991},{"locationID":196,"name":"Chinatown Branch Library, Meeting Room","hours":"11\/02 - 11\/04: 10AM - 7PM, 11\/05: 7AM - 8PM","votingPeriod":4,"latitude":34.060652,"longitude":-118.241061},{"locationID":14522,"name":"Christian Science Church-Malibu, Sunday School Building Reading Room","hours":"11\/02 - 11\/04: 10AM - 7PM, 11\/05: 7AM - 8PM","votingPeriod":4,"latitude":34.021025,"longitude":-118.796026},{"locationID":2230,"name":"Church Of The Holy Communion, Parish Hall","hours":"11\/02 - 11\/04: 10AM - 7PM, 11\/05: 7AM - 8PM","votingPeriod":4,"latitude":33.903076,"longitude":-118.295518},{"locationID":17880,"name":"Church of the Living God CWFF Temple 44, Fellowship Hall","hours":"11\/02 - 11\/04: 10AM - 7PM, 11\/05: 7AM - 8PM","votingPeriod":4,"latitude":33.946648,"longitude":-118.308572},{"locationID":2767,"name":"Cienega Elementary School, Auditorium","hours":"11\/02 - 11\/04: 10AM - 7PM, 11\/05: 7AM - 8PM","votingPeriod":4,"latitude":34.031974,"longitude":-118.353663},{"locationID":14932,"name":"Citrus College, Hayden Hall Room 101","hours":"11\/02 - 11\/04: 10AM - 7PM, 11\/05: 7AM - 8PM","votingPeriod":4,"latitude":34.134528,"longitude":-117.882997},{"locationID":15021,"name":"Civic Center Parking Structure, Santa Monica Inst-SMI Train Rm","hours":"10\/26 - 11\/04: 10AM - 7PM, 11\/05: 7AM - 8PM","votingPeriod":11,"latitude":34.011267,"longitude":-118.489831},{"locationID":24459,"name":"Claremont Unified School District, First Floor Conference Room","hours":"11\/02 - 11\/04: 10AM - 7PM, 11\/05: 7AM - 8PM","votingPeriod":4,"latitude":34.082828,"longitude":-117.716505},{"locationID":6176,"name":"Cochran Avenue Baptist Church, Fellowship Hall","hours":"11\/02 - 11\/04: 10AM - 7PM, 11\/05: 7AM - 8PM","votingPeriod":4,"latitude":34.050621,"longitude":-118.351588},{"locationID":27031,"name":"College of the Canyons, Hasley Hall Boardroom HSLH 137","hours":"11\/02 - 11\/04: 10AM - 7PM, 11\/05: 7AM - 8PM","votingPeriod":4,"latitude":34.405294,"longitude":-118.570019},{"locationID":18004,"name":"College Of the Canyons-Canyon Country, Student Services Bldg 1st Floor Lobby","hours":"11\/02 - 11\/04: 10AM - 7PM, 11\/05: 7AM - 8PM","votingPeriod":4,"latitude":34.436079,"longitude":-118.430087},{"locationID":12880,"name":"Community Church of Los Angeles, Fellowship Hall","hours":"11\/02 - 11\/04: 10AM - 7PM, 11\/05: 7AM - 8PM","votingPeriod":4,"latitude":33.939436,"longitude":-118.287317},{"locationID":1364,"name":"Compton College, Multi-Purpose Room","hours":"11\/02 - 11\/04: 10AM - 7PM, 11\/05: 7AM - 8PM","votingPeriod":4,"latitude":33.877459,"longitude":-118.209835},{"locationID":18070,"name":"Condit Elementary School, Multi-Purpose Room","hours":"11\/02 - 11\/04: 10AM - 7PM, 11\/05: 7AM - 8PM","votingPeriod":4,"latitude":34.115354,"longitude":-117.728188},{"locationID":19702,"name":"Congregation Ohel Moshe, Pardess Hall","hours":"11\/02 - 11\/04: 10AM - 7PM, 11\/05: 7AM - 8PM","votingPeriod":4,"latitude":34.053734,"longitude":-118.38021},{"locationID":6441,"name":"Cornerstone Christian Fellowship, Fellowship Hall","hours":"11\/02 - 11\/04: 10AM - 7PM, 11\/05: 7AM - 8PM","votingPeriod":4,"latitude":33.881129,"longitude":-118.382789},{"locationID":5340,"name":"Cortez Park Community and Senior Center, North Wing","hours":"11\/02 - 11\/04: 10AM - 7PM, 11\/05: 7AM - 8PM","votingPeriod":4,"latitude":34.064882,"longitude":-117.891587},{"locationID":23231,"name":"Courtyard by Marriott LA West Side, Studio Ballroom","hours":"11\/02 - 11\/04: 10AM - 7PM, 11\/05: 7AM - 8PM","votingPeriod":4,"latitude":33.981732,"longitude":-118.39242},{"locationID":22361,"name":"Courtyard by Marriott LA-LAX Hawthorne, Hangar Room and Aviation Room","hours":"11\/02 - 11\/04: 10AM - 7PM, 11\/05: 7AM - 8PM","votingPeriod":4,"latitude":33.916805,"longitude":-118.353715},{"locationID":14158,"name":"Courtyard Los Angeles Burbank Airport, Empire Ballroom","hours":"11\/02 - 11\/04: 10AM - 7PM, 11\/05: 7AM - 8PM","votingPeriod":4,"latitude":34.191367,"longitude":-118.333906},{"locationID":14513,"name":"Courtyard Thousand Oaks Agoura Hills, Sierra Ballroom","hours":"11\/02 - 11\/04: 10AM - 7PM, 11\/05: 7AM - 8PM","votingPeriod":4,"latitude":34.145744,"longitude":-118.768166},{"locationID":10995,"name":"Covina Senior and Community Center, California Rooms 1-3","hours":"11\/02 - 11\/04: 10AM - 7PM, 11\/05: 7AM - 8PM","votingPeriod":4,"latitude":34.094262,"longitude":-117.882321},{"locationID":6623,"name":"Covina United Methodist Church, Dougherty Hall","hours":"10\/26 - 11\/04: 10AM - 7PM, 11\/05: 7AM - 8PM","votingPeriod":11,"latitude":34.090283,"longitude":-117.897476},{"locationID":11729,"name":"Crenshaw High School, South Side Gymnasium","hours":"11\/02 - 11\/04: 10AM - 7PM, 11\/05: 7AM - 8PM","votingPeriod":4,"latitude":33.996159,"longitude":-118.329345},{"locationID":15016,"name":"Crescenta Valley High School, Falcon Cafe","hours":"11\/02 - 11\/04: 10AM - 7PM, 11\/05: 7AM - 8PM","votingPeriod":4,"latitude":34.223743,"longitude":-118.242733},{"locationID":12471,"name":"Crescenta Valley Park, Recreation Room","hours":"11\/02 - 11\/04: 10AM - 7PM, 11\/05: 7AM - 8PM","votingPeriod":4,"latitude":34.225011,"longitude":-118.257925},{"locationID":12325,"name":"Crestwood Hills Recreation Center, Clubroom","hours":"10\/26 - 11\/04: 10AM - 7PM, 11\/05: 7AM - 8PM","votingPeriod":11,"latitude":34.076784,"longitude":-118.488809},{"locationID":17355,"name":"Crestwood Street Elementary School, Auditorium","hours":"11\/02 - 11\/04: 10AM - 7PM, 11\/05: 7AM - 8PM","votingPeriod":4,"latitude":33.749435,"longitude":-118.312571},{"locationID":23013,"name":"Croatian American Club, The Hall","hours":"11\/02 - 11\/04: 10AM - 7PM, 11\/05: 7AM - 8PM","votingPeriod":4,"latitude":33.735781,"longitude":-118.290839},{"locationID":11785,"name":"Crowther Teen and Family Center, Foothill and Route 66 Rooms","hours":"11\/02 - 11\/04: 10AM - 7PM, 11\/05: 7AM - 8PM","votingPeriod":4,"latitude":34.118407,"longitude":-117.86642},{"locationID":11768,"name":"CSU Long Beach-Walter Pyramid, The Pointe Sunset Rooms A and B","hours":"11\/02 - 11\/04: 10AM - 7PM, 11\/05: 7AM - 8PM","votingPeriod":4,"latitude":33.787118,"longitude":-118.114319},{"locationID":20935,"name":"Culver City City Hall, Patacchia Rooms 1st Floor","hours":"10\/26 - 11\/04: 10AM - 7PM, 11\/05: 7AM - 8PM","votingPeriod":11,"latitude":34.020973,"longitude":-118.395664},{"locationID":1845,"name":"Cypress Park Recreation Center, Auditorium","hours":"11\/02 - 11\/04: 10AM - 7PM, 11\/05: 7AM - 8PM","votingPeriod":4,"latitude":34.089446,"longitude":-118.225542},{"locationID":26028,"name":"Da Vinci Schools, Atrium and Hall of Champions-WDV Gym","hours":"11\/02 - 11\/04: 10AM - 7PM, 11\/05: 7AM - 8PM","votingPeriod":4,"latitude":33.918137,"longitude":-118.384208},{"locationID":14160,"name":"Dan Diaz Recreation Center, Gymnasium","hours":"11\/02 - 11\/04: 10AM - 7PM, 11\/05: 7AM - 8PM","votingPeriod":4,"latitude":34.104047,"longitude":-117.932733},{"locationID":17068,"name":"Dana Neighborhood Library, Community Room","hours":"11\/02 - 11\/04: 10AM - 7PM, 11\/05: 7AM - 8PM","votingPeriod":4,"latitude":33.824075,"longitude":-118.184777},{"locationID":1855,"name":"Daniel Webster Middle School, Multi-Purpose Room","hours":"11\/02 - 11\/04: 10AM - 7PM, 11\/05: 7AM - 8PM","votingPeriod":4,"latitude":34.029845,"longitude":-118.434784},{"locationID":14855,"name":"Dee Hardison Sports Center, Multi-Purpose Room","hours":"10\/26 - 11\/04: 10AM - 7PM, 11\/05: 7AM - 8PM","votingPeriod":11,"latitude":33.826975,"longitude":-118.325773},{"locationID":24626,"name":"Del Aire Park, Community Room","hours":"11\/02 - 11\/04: 10AM - 7PM, 11\/05: 7AM - 8PM","votingPeriod":4,"latitude":33.918222,"longitude":-118.37485},{"locationID":26860,"name":"Del Norte Intermediate Property, Multi-Purpose Room","hours":"11\/02 - 11\/04: 10AM - 7PM, 11\/05: 7AM - 8PM","votingPeriod":4,"latitude":34.076832,"longitude":-117.936991},{"locationID":13903,"name":"Diamond Bar Center, Grand Ballroom","hours":"11\/02 - 11\/04: 10AM - 7PM, 11\/05: 7AM - 8PM","votingPeriod":4,"latitude":33.998615,"longitude":-117.79819},{"locationID":3968,"name":"Diamond Bar City Hall, Windmill Community Room","hours":"10\/26 - 11\/04: 10AM - 7PM, 11\/05: 7AM - 8PM","votingPeriod":11,"latitude":33.999139,"longitude":-117.830671},{"locationID":12288,"name":"Dodson Middle School, Library","hours":"11\/02 - 11\/04: 10AM - 7PM, 11\/05: 7AM - 8PM","votingPeriod":4,"latitude":33.765816,"longitude":-118.315488},{"locationID":24460,"name":"Dolores Huerta Elementary School, Library and Room 130","hours":"11\/02 - 11\/04: 10AM - 7PM, 11\/05: 7AM - 8PM","votingPeriod":4,"latitude":33.941233,"longitude":-118.345914},{"locationID":8705,"name":"Don Knabe Comm Regional Park, Multi-Purpose Room","hours":"11\/02 - 11\/04: 10AM - 7PM, 11\/05: 7AM - 8PM","votingPeriod":4,"latitude":33.850836,"longitude":-118.062541},{"locationID":27044,"name":"DoubleTree by Hilton Chatsworth, Roma Room","hours":"10\/26 - 11\/04: 10AM - 7PM, 11\/05: 7AM - 8PM","votingPeriod":11,"latitude":34.248519,"longitude":-118.606381},{"locationID":17560,"name":"Douglas F Dollarhide Community Center, Banquet Hall Room 101","hours":"10\/26 - 11\/04: 10AM - 7PM, 11\/05: 7AM - 8PM","votingPeriod":11,"latitude":33.89879,"longitude":-118.222463},{"locationID":9452,"name":"Dr J Michael McGrath Elementary School, Library","hours":"11\/02 - 11\/04: 10AM - 7PM, 11\/05: 7AM - 8PM","votingPeriod":4,"latitude":34.375861,"longitude":-118.513787},{"locationID":6503,"name":"Drake Park, Social Hall","hours":"11\/02 - 11\/04: 10AM - 7PM, 11\/05: 7AM - 8PM","votingPeriod":4,"latitude":33.778155,"longitude":-118.201361},{"locationID":17101,"name":"Duarte Community Center, Community Center","hours":"11\/02 - 11\/04: 10AM - 7PM, 11\/05: 7AM - 8PM","votingPeriod":4,"latitude":34.139313,"longitude":-117.970421},{"locationID":17140,"name":"Durfee Elementary-Middle School, Staff Training Room","hours":"11\/02 - 11\/04: 10AM - 7PM, 11\/05: 7AM - 8PM","votingPeriod":4,"latitude":34.081919,"longitude":-118.003269},{"locationID":9389,"name":"E Rancho Dominguez Park, Gymnasium","hours":"11\/02 - 11\/04: 10AM - 7PM, 11\/05: 7AM - 8PM","votingPeriod":4,"latitude":33.895371,"longitude":-118.192833},{"locationID":3155,"name":"E Whittier United Methodist Church, Geer Hall","hours":"11\/02 - 11\/04: 10AM - 7PM, 11\/05: 7AM - 8PM","votingPeriod":4,"latitude":33.945666,"longitude":-118.005632},{"locationID":175,"name":"Eagle Rock Branch Library, Meeting Room","hours":"11\/02 - 11\/04: 10AM - 7PM, 11\/05: 7AM - 8PM","votingPeriod":4,"latitude":34.137608,"longitude":-118.213377},{"locationID":13290,"name":"Eagle Rock Recreation Center, Multi-Purpose Room","hours":"11\/02 - 11\/04: 10AM - 7PM, 11\/05: 7AM - 8PM","votingPeriod":4,"latitude":34.143408,"longitude":-118.188713},{"locationID":15015,"name":"Early Childhood Education Center, Building N","hours":"11\/02 - 11\/04: 10AM - 7PM, 11\/05: 7AM - 8PM","votingPeriod":4,"latitude":34.075021,"longitude":-117.981692},{"locationID":18897,"name":"East Los Angeles College, F5-201 Multi-Purpose Room","hours":"11\/02 - 11\/04: 10AM - 7PM, 11\/05: 7AM - 8PM","votingPeriod":4,"latitude":34.040956,"longitude":-118.148439},{"locationID":20941,"name":"Eastside Union School District, Training Rooms 105 and 106","hours":"11\/02 - 11\/04: 10AM - 7PM, 11\/05: 7AM - 8PM","votingPeriod":4,"latitude":34.700416,"longitude":-118.076038},{"locationID":160,"name":"Echo Park Branch Library, 203 Multi-Purpose Room","hours":"11\/02 - 11\/04: 10AM - 7PM, 11\/05: 7AM - 8PM","votingPeriod":4,"latitude":34.067098,"longitude":-118.257306},{"locationID":20220,"name":"Echo Park Recreation Center, Classrooms 3 and 4","hours":"10\/26 - 11\/04: 10AM - 7PM, 11\/05: 7AM - 8PM","votingPeriod":11,"latitude":34.069847,"longitude":-118.260211},{"locationID":2636,"name":"El Camino High School, Multi-Purpose Room","hours":"11\/02 - 11\/04: 10AM - 7PM, 11\/05: 7AM - 8PM","votingPeriod":4,"latitude":33.919765,"longitude":-118.019179},{"locationID":14316,"name":"El Camino Real Charter High School, Anderson Hall","hours":"11\/02 - 11\/04: 10AM - 7PM, 11\/05: 7AM - 8PM","votingPeriod":4,"latitude":34.170814,"longitude":-118.644183},{"locationID":11791,"name":"El Hussein Community Center, Youth Center","hours":"10\/26 - 11\/04: 10AM - 7PM, 11\/05: 7AM - 8PM","votingPeriod":11,"latitude":33.978663,"longitude":-118.19098},{"locationID":219,"name":"El Segundo Public Library, S Carter Friends of the Library Comm Rm","hours":"11\/02 - 11\/04: 10AM - 7PM, 11\/05: 7AM - 8PM","votingPeriod":4,"latitude":33.923746,"longitude":-118.416847},{"locationID":1732,"name":"Elizabeth Learning Center, Multi-Purpose Room","hours":"11\/02 - 11\/04: 10AM - 7PM, 11\/05: 7AM - 8PM","votingPeriod":4,"latitude":33.96317,"longitude":-118.183096},{"locationID":6804,"name":"Elks Lodge 1804, Banquet Room","hours":"11\/02 - 11\/04: 10AM - 7PM, 11\/05: 7AM - 8PM","votingPeriod":4,"latitude":33.889045,"longitude":-118.156826},{"locationID":14318,"name":"Elks Lodge 2190, Main Hall","hours":"11\/02 - 11\/04: 10AM - 7PM, 11\/05: 7AM - 8PM","votingPeriod":4,"latitude":34.23347,"longitude":-118.589493},{"locationID":17801,"name":"Ellen Ochoa Learning Center, Multi-Purpose Room","hours":"11\/02 - 11\/04: 10AM - 7PM, 11\/05: 7AM - 8PM","votingPeriod":4,"latitude":33.96706,"longitude":-118.176658},{"locationID":9291,"name":"Elysian Masonic Temple, Dining Room","hours":"10\/26 - 11\/04: 10AM - 7PM, 11\/05: 7AM - 8PM","votingPeriod":11,"latitude":34.105755,"longitude":-118.291586},{"locationID":24852,"name":"Embassy Suites-Hilton Arcadia Pasadena, Iron Room","hours":"10\/26 - 11\/04: 10AM - 7PM, 11\/05: 7AM - 8PM","votingPeriod":11,"latitude":34.141279,"longitude":-118.024431},{"locationID":14582,"name":"Emerson Community Charter School, Gymnasium","hours":"11\/02 - 11\/04: 10AM - 7PM, 11\/05: 7AM - 8PM","votingPeriod":4,"latitude":34.053799,"longitude":-118.436031},{"locationID":22398,"name":"Emerson Middle School, Gymnasium","hours":"11\/02 - 11\/04: 10AM - 7PM, 11\/05: 7AM - 8PM","votingPeriod":4,"latitude":34.070825,"longitude":-117.74049},{"locationID":6363,"name":"Emery Park, Gymnasium","hours":"11\/02 - 11\/04: 10AM - 7PM, 11\/05: 7AM - 8PM","votingPeriod":4,"latitude":34.085231,"longitude":-118.153139},{"locationID":2802,"name":"Esperanza Elementary School, Multi-Purpose Room","hours":"11\/02 - 11\/04: 10AM - 7PM, 11\/05: 7AM - 8PM","votingPeriod":4,"latitude":34.055087,"longitude":-118.272354},{"locationID":1928,"name":"Fairfax Senior Citizen Center, Auditorium","hours":"11\/02 - 11\/04: 10AM - 7PM, 11\/05: 7AM - 8PM","votingPeriod":4,"latitude":34.083935,"longitude":-118.362459},{"locationID":26930,"name":"Fairplex, Expo Hall 5","hours":"11\/02 - 11\/04: 10AM - 7PM, 11\/05: 7AM - 8PM","votingPeriod":4,"latitude":34.08115,"longitude":-117.762861},{"locationID":14325,"name":"Faith In Christ Ministries, Community Room","hours":"11\/02 - 11\/04: 10AM - 7PM, 11\/05: 7AM - 8PM","votingPeriod":4,"latitude":34.002646,"longitude":-118.309183},{"locationID":20187,"name":"Faith Presbyterian Church, Caldwell Hall","hours":"11\/02 - 11\/04: 10AM - 7PM, 11\/05: 7AM - 8PM","votingPeriod":4,"latitude":34.16182,"longitude":-118.387388},{"locationID":13541,"name":"Felicia Mahood Multipurpose Center, Lobby","hours":"11\/02 - 11\/04: 10AM - 7PM, 11\/05: 7AM - 8PM","votingPeriod":4,"latitude":34.045561,"longitude":-118.4495},{"locationID":9445,"name":"Fernangeles Elementary School, Auditorium","hours":"11\/02 - 11\/04: 10AM - 7PM, 11\/05: 7AM - 8PM","votingPeriod":4,"latitude":34.230992,"longitude":-118.394624},{"locationID":25299,"name":"Fil-Am Christian Fellowship-Long Beach, Dining Hall","hours":"11\/02 - 11\/04: 10AM - 7PM, 11\/05: 7AM - 8PM","votingPeriod":4,"latitude":33.815098,"longitude":-118.19768},{"locationID":7203,"name":"First Baptist Church of Palos Verdes, Calhoun Hall","hours":"11\/02 - 11\/04: 10AM - 7PM, 11\/05: 7AM - 8PM","votingPeriod":4,"latitude":33.787408,"longitude":-118.354112},{"locationID":12917,"name":"First New Christian Fellowship Church, Jackson Hall","hours":"11\/02 - 11\/04: 10AM - 7PM, 11\/05: 7AM - 8PM","votingPeriod":4,"latitude":33.938434,"longitude":-118.304498},{"locationID":3294,"name":"First United Methodist Church, Wesley Building Room 120","hours":"11\/02 - 11\/04: 10AM - 7PM, 11\/05: 7AM - 8PM","votingPeriod":4,"latitude":33.980107,"longitude":-118.034062},{"locationID":3897,"name":"First United Methodist Church-Pasadena, Great Hall","hours":"11\/02 - 11\/04: 10AM - 7PM, 11\/05: 7AM - 8PM","votingPeriod":4,"latitude":34.145498,"longitude":-118.139917},{"locationID":13672,"name":"Florence Avenue Foursquare Church, Fellowship Hall","hours":"11\/02 - 11\/04: 10AM - 7PM, 11\/05: 7AM - 8PM","votingPeriod":4,"latitude":33.935676,"longitude":-118.088407},{"locationID":14329,"name":"Foisia Park, Gymnasium","hours":"11\/02 - 11\/04: 10AM - 7PM, 11\/05: 7AM - 8PM","votingPeriod":4,"latitude":33.813267,"longitude":-118.270812},{"locationID":212,"name":"Founders Hall, Behind the Library","hours":"10\/26 - 11\/04: 10AM - 7PM, 11\/05: 7AM - 8PM","votingPeriod":11,"latitude":34.152439,"longitude":-118.646447},{"locationID":14331,"name":"Foursquare Church-Pearblossom, Sanctuary","hours":"11\/02 - 11\/04: 10AM - 7PM, 11\/05: 7AM - 8PM","votingPeriod":4,"latitude":34.503024,"longitude":-117.909921},{"locationID":17919,"name":"Frank J Zamboni Middle School, Library","hours":"11\/02 - 11\/04: 10AM - 7PM, 11\/05: 7AM - 8PM","votingPeriod":4,"latitude":33.890037,"longitude":-118.178061},{"locationID":2332,"name":"Franklin D Roosevelt Park, Gymnasium","hours":"10\/26 - 11\/04: 10AM - 7PM, 11\/05: 7AM - 8PM","votingPeriod":11,"latitude":33.968508,"longitude":-118.242857},{"locationID":14962,"name":"Franklin High School, Small Gymnasium","hours":"11\/02 - 11\/04: 10AM - 7PM, 11\/05: 7AM - 8PM","votingPeriod":4,"latitude":34.115857,"longitude":-118.198785},{"locationID":15018,"name":"Fremont High School, Small Gymnasium","hours":"11\/02 - 11\/04: 10AM - 7PM, 11\/05: 7AM - 8PM","votingPeriod":4,"latitude":33.969626,"longitude":-118.267096},{"locationID":8603,"name":"Fullbright Avenue Elementary School, Auditorium","hours":"11\/02 - 11\/04: 10AM - 7PM, 11\/05: 7AM - 8PM","votingPeriod":4,"latitude":34.196646,"longitude":-118.5771},{"locationID":21227,"name":"Furman Park, Activity Rooms 1 and 2","hours":"11\/02 - 11\/04: 10AM - 7PM, 11\/05: 7AM - 8PM","votingPeriod":4,"latitude":33.952991,"longitude":-118.137487},{"locationID":14883,"name":"Gage Middle School, Multi-Purpose Room","hours":"11\/02 - 11\/04: 10AM - 7PM, 11\/05: 7AM - 8PM","votingPeriod":4,"latitude":33.980961,"longitude":-118.217679},{"locationID":14884,"name":"Gardena High School, Social Hall","hours":"11\/02 - 11\/04: 10AM - 7PM, 11\/05: 7AM - 8PM","votingPeriod":4,"latitude":33.866905,"longitude":-118.29699},{"locationID":22198,"name":"Garvanza Elementary School, Multi-Purpose Room","hours":"11\/02 - 11\/04: 10AM - 7PM, 11\/05: 7AM - 8PM","votingPeriod":4,"latitude":34.117849,"longitude":-118.182503},{"locationID":11784,"name":"Garvey Center, Frank G Tripepi Room","hours":"11\/02 - 11\/04: 10AM - 7PM, 11\/05: 7AM - 8PM","votingPeriod":4,"latitude":34.061748,"longitude":-118.07052},{"locationID":6159,"name":"Garvey Ranch Park, Community Room","hours":"11\/02 - 11\/04: 10AM - 7PM, 11\/05: 7AM - 8PM","votingPeriod":4,"latitude":34.052605,"longitude":-118.113697},{"locationID":3126,"name":"George Lane Park, Community Room","hours":"10\/26 - 11\/04: 10AM - 7PM, 11\/05: 7AM - 8PM","votingPeriod":11,"latitude":34.65272,"longitude":-118.228072},{"locationID":14339,"name":"George Washington Carver Middle School, Auditorium","hours":"11\/02 - 11\/04: 10AM - 7PM, 11\/05: 7AM - 8PM","votingPeriod":4,"latitude":34.003325,"longitude":-118.259635},{"locationID":19918,"name":"Glassell Senior Citizen Center, Activity Room","hours":"10\/26 - 11\/04: 10AM - 7PM, 11\/05: 7AM - 8PM","votingPeriod":11,"latitude":34.118045,"longitude":-118.231962},{"locationID":12739,"name":"Glen Alta Span School, Auditorium","hours":"11\/02 - 11\/04: 10AM - 7PM, 11\/05: 7AM - 8PM","votingPeriod":4,"latitude":34.085314,"longitude":-118.199644},{"locationID":12401,"name":"Glendale Church of Christ, Multi-Purpose Room","hours":"11\/02 - 11\/04: 10AM - 7PM, 11\/05: 7AM - 8PM","votingPeriod":4,"latitude":34.176079,"longitude":-118.295888},{"locationID":11736,"name":"Glendale Community College, Student Center Conference Room 212A","hours":"10\/26 - 11\/04: 10AM - 7PM, 11\/05: 7AM - 8PM","votingPeriod":11,"latitude":34.166634,"longitude":-118.227444},{"locationID":14177,"name":"Glendale Express Hotel, Grand Ballroom","hours":"11\/02 - 11\/04: 10AM - 7PM, 11\/05: 7AM - 8PM","votingPeriod":4,"latitude":34.154932,"longitude":-118.263458},{"locationID":14179,"name":"Glendale Youth Center, Main Room and Waiting Room","hours":"11\/02 - 11\/04: 10AM - 7PM, 11\/05: 7AM - 8PM","votingPeriod":4,"latitude":34.139486,"longitude":-118.257003},{"locationID":6853,"name":"Glendora Masonic Temple, Hall and Coffee Room","hours":"10\/26 - 11\/04: 10AM - 7PM, 11\/05: 7AM - 8PM","votingPeriod":11,"latitude":34.137021,"longitude":-117.838199},{"locationID":2225,"name":"Glendora United Methodist Church, Dining Room","hours":"11\/02 - 11\/04: 10AM - 7PM, 11\/05: 7AM - 8PM","votingPeriod":4,"latitude":34.140049,"longitude":-117.863678},{"locationID":6147,"name":"Glenwood Elementary School, Auditorium","hours":"11\/02 - 11\/04: 10AM - 7PM, 11\/05: 7AM - 8PM","votingPeriod":4,"latitude":34.216359,"longitude":-118.357848},{"locationID":14801,"name":"Golden Park, Auditorium","hours":"11\/02 - 11\/04: 10AM - 7PM, 11\/05: 7AM - 8PM","votingPeriod":4,"latitude":33.907833,"longitude":-118.146951},{"locationID":22407,"name":"Goodwill SOLAC, Event Space","hours":"11\/02 - 11\/04: 10AM - 7PM, 11\/05: 7AM - 8PM","votingPeriod":4,"latitude":33.789498,"longitude":-118.202263},{"locationID":10821,"name":"Goodwill Southern California, Community Room","hours":"11\/02 - 11\/04: 10AM - 7PM, 11\/05: 7AM - 8PM","votingPeriod":4,"latitude":34.218158,"longitude":-118.451562},{"locationID":4592,"name":"Grace Baptist Church, Junior High Room","hours":"11\/02 - 11\/04: 10AM - 7PM, 11\/05: 7AM - 8PM","votingPeriod":4,"latitude":34.461504,"longitude":-118.53838},{"locationID":4501,"name":"Grace Samoan Church of the Nazarene, Fellowship Hall","hours":"11\/02 - 11\/04: 10AM - 7PM, 11\/05: 7AM - 8PM","votingPeriod":4,"latitude":33.852297,"longitude":-118.194693},{"locationID":13932,"name":"Granada Elementary School, Auditorium","hours":"11\/02 - 11\/04: 10AM - 7PM, 11\/05: 7AM - 8PM","votingPeriod":4,"latitude":34.266904,"longitude":-118.50761},{"locationID":12865,"name":"Granada Park, Activity Room","hours":"11\/02 - 11\/04: 10AM - 7PM, 11\/05: 7AM - 8PM","votingPeriod":4,"latitude":34.068164,"longitude":-118.145072},{"locationID":22187,"name":"Grand View Boulevard Elementary School, Auditorium","hours":"11\/02 - 11\/04: 10AM - 7PM, 11\/05: 7AM - 8PM","votingPeriod":4,"latitude":34.00237,"longitude":-118.429599},{"locationID":17790,"name":"Granite Creek Community Church, Sanctuary","hours":"10\/26 - 11\/04: 10AM - 7PM, 11\/05: 7AM - 8PM","votingPeriod":11,"latitude":34.111998,"longitude":-117.700454},{"locationID":24720,"name":"Greater Bethel Cathedral, Bungalow 38 and Bungalow 39","hours":"10\/26 - 11\/04: 10AM - 7PM, 11\/05: 7AM - 8PM","votingPeriod":11,"latitude":33.998954,"longitude":-118.31414},{"locationID":12964,"name":"Greater Los Angeles Agency on Deafness, Dining Room","hours":"11\/02 - 11\/04: 10AM - 7PM, 11\/05: 7AM - 8PM","votingPeriod":4,"latitude":34.133071,"longitude":-118.217165},{"locationID":22184,"name":"Griffin Avenue Elementary School, Multi-Purpose Room","hours":"11\/02 - 11\/04: 10AM - 7PM, 11\/05: 7AM - 8PM","votingPeriod":4,"latitude":34.068157,"longitude":-118.211975},{"locationID":20118,"name":"Griffith Park Visitor Center, Auditorium","hours":"11\/02 - 11\/04: 10AM - 7PM, 11\/05: 7AM - 8PM","votingPeriod":4,"latitude":34.132615,"longitude":-118.280021},{"locationID":4122,"name":"Hacienda Heights Comm and Rec Center, Banquet Rooms A B and C","hours":"11\/02 - 11\/04: 10AM - 7PM, 11\/05: 7AM - 8PM","votingPeriod":4,"latitude":34.012969,"longitude":-117.979153},{"locationID":463,"name":"Hammer Museum, Bay-Nimoy Studio","hours":"11\/02 - 11\/04: 10AM - 7PM, 11\/05: 7AM - 8PM","votingPeriod":4,"latitude":34.059228,"longitude":-118.443667},{"locationID":6932,"name":"Harrison Elementary School, Auditorium","hours":"11\/02 - 11\/04: 10AM - 7PM, 11\/05: 7AM - 8PM","votingPeriod":4,"latitude":34.053624,"longitude":-118.188725},{"locationID":17982,"name":"Harry Bridges Span School, Auditorium","hours":"11\/02 - 11\/04: 10AM - 7PM, 11\/05: 7AM - 8PM","votingPeriod":4,"latitude":33.787613,"longitude":-118.261834},{"locationID":5876,"name":"Haskell STEAM Magnet Elementary School, Auditorium","hours":"11\/02 - 11\/04: 10AM - 7PM, 11\/05: 7AM - 8PM","votingPeriod":4,"latitude":34.268022,"longitude":-118.477584},{"locationID":14805,"name":"Hawthorne Memorial Center, Venus Room","hours":"10\/26 - 11\/04: 10AM - 7PM, 11\/05: 7AM - 8PM","votingPeriod":11,"latitude":33.917001,"longitude":-118.341708},{"locationID":18106,"name":"Hazeltine Avenue Elementary School, Auditorium","hours":"11\/02 - 11\/04: 10AM - 7PM, 11\/05: 7AM - 8PM","votingPeriod":4,"latitude":34.200254,"longitude":-118.439655},{"locationID":519,"name":"Henning Youth Center, Gymnasium","hours":"11\/02 - 11\/04: 10AM - 7PM, 11\/05: 7AM - 8PM","votingPeriod":4,"latitude":33.926753,"longitude":-118.205651},{"locationID":20237,"name":"Herma Tillim Senior Center, Comm Room and Early Childhood Ed Room","hours":"11\/02 - 11\/04: 10AM - 7PM, 11\/05: 7AM - 8PM","votingPeriod":4,"latitude":33.872586,"longitude":-118.335855},{"locationID":20640,"name":"Hermosa Beach Community Center, Room 7","hours":"10\/26 - 11\/04: 10AM - 7PM, 11\/05: 7AM - 8PM","votingPeriod":11,"latitude":33.864098,"longitude":-118.394135},{"locationID":11063,"name":"High Desert Regional Health Center, Conference Rooms 11A-11C","hours":"11\/02 - 11\/04: 10AM - 7PM, 11\/05: 7AM - 8PM","votingPeriod":4,"latitude":34.704533,"longitude":-118.124732},{"locationID":14358,"name":"Higher Vision Church, Multi-Purpose Room","hours":"10\/26 - 11\/04: 10AM - 7PM, 11\/05: 7AM - 8PM","votingPeriod":11,"latitude":34.441477,"longitude":-118.604984},{"locationID":20572,"name":"Hobart Boulevard Elementary School, Auditorium","hours":"11\/02 - 11\/04: 10AM - 7PM, 11\/05: 7AM - 8PM","votingPeriod":4,"latitude":34.052818,"longitude":-118.304437},{"locationID":11484,"name":"Hollyglen Elementary School, Multi-Purpose Room","hours":"11\/02 - 11\/04: 10AM - 7PM, 11\/05: 7AM - 8PM","votingPeriod":4,"latitude":33.909716,"longitude":-118.37299},{"locationID":5281,"name":"Hollywood Masonic Lodge 355, Banquet Hall","hours":"10\/26 - 11\/04: 10AM - 7PM, 11\/05: 7AM - 8PM","votingPeriod":11,"latitude":34.172515,"longitude":-118.560865},{"locationID":14188,"name":"Holy Angels Church of the Deaf, Fellowship Hall","hours":"11\/02 - 11\/04: 10AM - 7PM, 11\/05: 7AM - 8PM","votingPeriod":4,"latitude":34.002935,"longitude":-118.230598},{"locationID":18321,"name":"Holy Chapel Missionary Baptist Church, Fellowship Hall","hours":"11\/02 - 11\/04: 10AM - 7PM, 11\/05: 7AM - 8PM","votingPeriod":4,"latitude":33.902298,"longitude":-118.257184},{"locationID":12544,"name":"Holy Name of Mary Catholic Church, Parish Hall","hours":"11\/02 - 11\/04: 10AM - 7PM, 11\/05: 7AM - 8PM","votingPeriod":4,"latitude":34.106183,"longitude":-117.79351},{"locationID":21535,"name":"Homewood Suites by Hilton Agoura Hills, Ventura Room A and B","hours":"11\/02 - 11\/04: 10AM - 7PM, 11\/05: 7AM - 8PM","votingPeriod":4,"latitude":34.14615,"longitude":-118.75559},{"locationID":18208,"name":"Hoover Recreation Center, Auditorium","hours":"11\/02 - 11\/04: 10AM - 7PM, 11\/05: 7AM - 8PM","votingPeriod":4,"latitude":34.032614,"longitude":-118.283001},{"locationID":13854,"name":"Horace Mann Elementary School, Auditorium","hours":"11\/02 - 11\/04: 10AM - 7PM, 11\/05: 7AM - 8PM","votingPeriod":4,"latitude":34.065311,"longitude":-118.382176},{"locationID":13805,"name":"Hotel Figueroa, Gran Sala","hours":"10\/26 - 11\/04: 10AM - 7PM, 11\/05: 7AM - 8PM","votingPeriod":11,"latitude":34.045543,"longitude":-118.264017},{"locationID":14615,"name":"Houghton Park, D T Elvord Community Center Social Hall","hours":"11\/02 - 11\/04: 10AM - 7PM, 11\/05: 7AM - 8PM","votingPeriod":4,"latitude":33.869712,"longitude":-118.183461},{"locationID":14367,"name":"Huerta Elementary School, Multi-Purpose Room","hours":"11\/02 - 11\/04: 10AM - 7PM, 11\/05: 7AM - 8PM","votingPeriod":4,"latitude":33.890721,"longitude":-118.082897},{"locationID":12786,"name":"Iglesia Cristiana De South Gate, Gymnasium","hours":"11\/02 - 11\/04: 10AM - 7PM, 11\/05: 7AM - 8PM","votingPeriod":4,"latitude":33.945754,"longitude":-118.193895},{"locationID":3114,"name":"Iglesia De Dios, Community Room","hours":"11\/02 - 11\/04: 10AM - 7PM, 11\/05: 7AM - 8PM","votingPeriod":4,"latitude":33.972411,"longitude":-118.177029},{"locationID":10024,"name":"IMAN Cultural Center, Community Room","hours":"11\/02 - 11\/04: 10AM - 7PM, 11\/05: 7AM - 8PM","votingPeriod":4,"latitude":34.028176,"longitude":-118.409679},{"locationID":10890,"name":"Impressions Banquet Hall, Banquet Hall","hours":"11\/02 - 11\/04: 10AM - 7PM, 11\/05: 7AM - 8PM","votingPeriod":4,"latitude":34.148644,"longitude":-118.256212},{"locationID":26653,"name":"Inglewood High School, Auditorium","hours":"11\/02 - 11\/04: 10AM - 7PM, 11\/05: 7AM - 8PM","votingPeriod":4,"latitude":33.96143,"longitude":-118.356089},{"locationID":14195,"name":"Inglewood Unified School District, Dr Ernest Shaw Boardroom","hours":"11\/02 - 11\/04: 10AM - 7PM, 11\/05: 7AM - 8PM","votingPeriod":4,"latitude":33.958545,"longitude":-118.362134},{"locationID":15037,"name":"Inner-City Arts, Rosenthal Theater","hours":"11\/02 - 11\/04: 10AM - 7PM, 11\/05: 7AM - 8PM","votingPeriod":4,"latitude":34.036968,"longitude":-118.2428},{"locationID":13664,"name":"International City Masonic Center, Hall","hours":"10\/26 - 11\/04: 10AM - 7PM, 11\/05: 7AM - 8PM","votingPeriod":11,"latitude":33.78371,"longitude":-118.133072},{"locationID":6627,"name":"IOOF Bellflower Lodge 463, Meeting Hall","hours":"10\/26 - 11\/04: 10AM - 7PM, 11\/05: 7AM - 8PM","votingPeriod":11,"latitude":33.890796,"longitude":-118.133646},{"locationID":13110,"name":"Italian American Club, Main Room","hours":"10\/26 - 11\/04: 10AM - 7PM, 11\/05: 7AM - 8PM","votingPeriod":11,"latitude":33.726808,"longitude":-118.294932},{"locationID":9915,"name":"J H Hull Middle School, Gymnasium","hours":"11\/02 - 11\/04: 10AM - 7PM, 11\/05: 7AM - 8PM","votingPeriod":4,"latitude":33.815063,"longitude":-118.31818},{"locationID":26145,"name":"JA Venue, Main Room","hours":"11\/02 - 11\/04: 10AM - 7PM, 11\/05: 7AM - 8PM","votingPeriod":4,"latitude":33.959798,"longitude":-118.315726},{"locationID":11726,"name":"Jackie Robinson Park, Carroll Building","hours":"11\/02 - 11\/04: 10AM - 7PM, 11\/05: 7AM - 8PM","votingPeriod":4,"latitude":34.572766,"longitude":-117.97301},{"locationID":24544,"name":"Jam City, Community Lounge","hours":"11\/02 - 11\/04: 10AM - 7PM, 11\/05: 7AM - 8PM","votingPeriod":4,"latitude":34.025575,"longitude":-118.37746},{"locationID":2754,"name":"James Madison Middle School, Auditorium","hours":"11\/02 - 11\/04: 10AM - 7PM, 11\/05: 7AM - 8PM","votingPeriod":4,"latitude":34.197312,"longitude":-118.415468},{"locationID":2399,"name":"James Monroe High School, Multi-Purpose Room","hours":"11\/02 - 11\/04: 10AM - 7PM, 11\/05: 7AM - 8PM","votingPeriod":4,"latitude":34.237629,"longitude":-118.477238},{"locationID":14985,"name":"James Wood Community Center, Community Room","hours":"11\/02 - 11\/04: 10AM - 7PM, 11\/05: 7AM - 8PM","votingPeriod":4,"latitude":34.04434,"longitude":-118.244959},{"locationID":11826,"name":"Jane Addams Middle School, Gymnasium","hours":"11\/02 - 11\/04: 10AM - 7PM, 11\/05: 7AM - 8PM","votingPeriod":4,"latitude":33.893252,"longitude":-118.356946},{"locationID":27043,"name":"Japanese American National Museum, Democracy Lab","hours":"11\/02 - 11\/04: 10AM - 7PM, 11\/05: 7AM - 8PM","votingPeriod":4,"latitude":34.049623,"longitude":-118.238444},{"locationID":5400,"name":"Jeff Seymour Fam Ctr-Mulhall Elem Sch, Multi-Purpose Room","hours":"11\/02 - 11\/04: 10AM - 7PM, 11\/05: 7AM - 8PM","votingPeriod":4,"latitude":34.088942,"longitude":-118.029069},{"locationID":24251,"name":"Jefferson Branch Library, Auditorium","hours":"11\/02 - 11\/04: 10AM - 7PM, 11\/05: 7AM - 8PM","votingPeriod":4,"latitude":34.153962,"longitude":-118.118369},{"locationID":7149,"name":"Jefferson Middle School, Multi-Purpose Room","hours":"11\/02 - 11\/04: 10AM - 7PM, 11\/05: 7AM - 8PM","votingPeriod":4,"latitude":33.832239,"longitude":-118.35755},{"locationID":22228,"name":"Jefferson-V D Wright Mem Branch Library, Meeting Room","hours":"11\/02 - 11\/04: 10AM - 7PM, 11\/05: 7AM - 8PM","votingPeriod":4,"latitude":34.02589,"longitude":-118.319305},{"locationID":13108,"name":"Jesus Sacred Heart Church, Parish Hall","hours":"11\/02 - 11\/04: 10AM - 7PM, 11\/05: 7AM - 8PM","votingPeriod":4,"latitude":34.174194,"longitude":-118.367741},{"locationID":15034,"name":"John Mack Elementary School, Multi-Purpose Room","hours":"11\/02 - 11\/04: 10AM - 7PM, 11\/05: 7AM - 8PM","votingPeriod":4,"latitude":34.026658,"longitude":-118.293537},{"locationID":14376,"name":"John Marshall Middle School, Gymnasium","hours":"11\/02 - 11\/04: 10AM - 7PM, 11\/05: 7AM - 8PM","votingPeriod":4,"latitude":34.065538,"longitude":-117.785907},{"locationID":13348,"name":"Jordan Downs Recreation Center, Old Gymnasium","hours":"11\/02 - 11\/04: 10AM - 7PM, 11\/05: 7AM - 8PM","votingPeriod":4,"latitude":33.946046,"longitude":-118.236482},{"locationID":20943,"name":"Jordan Plus, Building D Multi-Purpose Room","hours":"11\/02 - 11\/04: 10AM - 7PM, 11\/05: 7AM - 8PM","votingPeriod":4,"latitude":33.87108,"longitude":-118.206028},{"locationID":4399,"name":"Joslyn Park, Rec Building Community Room","hours":"11\/02 - 11\/04: 10AM - 7PM, 11\/05: 7AM - 8PM","votingPeriod":4,"latitude":34.008106,"longitude":-118.481352},{"locationID":14378,"name":"Justice Street Academy Charter School, Auditorium","hours":"11\/02 - 11\/04: 10AM - 7PM, 11\/05: 7AM - 8PM","votingPeriod":4,"latitude":34.215463,"longitude":-118.635699},{"locationID":20938,"name":"Kenneth Hahn Hall of Administration, 2nd Floor Lobby","hours":"11\/02 - 11\/04: 10AM - 7PM, 11\/05: 7AM - 8PM","votingPeriod":4,"latitude":34.056687,"longitude":-118.246036},{"locationID":19464,"name":"KIPP Promesa Prep, Multi-Purpose Room","hours":"11\/02 - 11\/04: 10AM - 7PM, 11\/05: 7AM - 8PM","votingPeriod":4,"latitude":34.027353,"longitude":-118.219771},{"locationID":24942,"name":"Korea Daily, Gallery","hours":"11\/02 - 11\/04: 10AM - 7PM, 11\/05: 7AM - 8PM","votingPeriod":4,"latitude":34.06018,"longitude":-118.287406},{"locationID":11814,"name":"La Canada USD Office, Boardroom","hours":"11\/02 - 11\/04: 10AM - 7PM, 11\/05: 7AM - 8PM","votingPeriod":4,"latitude":34.205048,"longitude":-118.203365},{"locationID":13861,"name":"La Cienega Tennis Center, Rodeo Room","hours":"11\/02 - 11\/04: 10AM - 7PM, 11\/05: 7AM - 8PM","votingPeriod":4,"latitude":34.061155,"longitude":-118.376723},{"locationID":13946,"name":"LA County Department of Public Works, Conference Rooms A B and C","hours":"10\/26 - 11\/04: 10AM - 7PM, 11\/05: 7AM - 8PM","votingPeriod":11,"latitude":34.084805,"longitude":-118.150371},{"locationID":13565,"name":"LA County Registrar-Recorder, Room 3201","hours":"Monday-Friday (excluding holidays) 8AM - 5PM","votingPeriod":29,"latitude":33.915849,"longitude":-118.067322},{"locationID":14619,"name":"La Crescenta Woman's Club, Meeting Room and Tea Room","hours":"10\/26 - 11\/04: 10AM - 7PM, 11\/05: 7AM - 8PM","votingPeriod":11,"latitude":34.214432,"longitude":-118.239741},{"locationID":13784,"name":"LA Family Housing, Winn Community Room","hours":"10\/26 - 11\/04: 10AM - 7PM, 11\/05: 7AM - 8PM","votingPeriod":11,"latitude":34.213693,"longitude":-118.388146},{"locationID":21576,"name":"La Merced Academy, Cafeteria","hours":"11\/02 - 11\/04: 10AM - 7PM, 11\/05: 7AM - 8PM","votingPeriod":4,"latitude":34.021284,"longitude":-118.095395},{"locationID":2584,"name":"La Mesa Junior High School, Multi-Purpose Room","hours":"11\/02 - 11\/04: 10AM - 7PM, 11\/05: 7AM - 8PM","votingPeriod":4,"latitude":34.408018,"longitude":-118.483159},{"locationID":11713,"name":"La Mirada Activity Center, Upstairs Meeting Room","hours":"10\/26 - 11\/04: 10AM - 7PM, 11\/05: 7AM - 8PM","votingPeriod":11,"latitude":33.905088,"longitude":-118.010493},{"locationID":10639,"name":"La Puente Community Center, Multi-Purpose Rooms 22-24","hours":"10\/26 - 11\/04: 10AM - 7PM, 11\/05: 7AM - 8PM","votingPeriod":11,"latitude":34.026285,"longitude":-117.951476},{"locationID":14383,"name":"La Serna High School, Cafeteria","hours":"11\/02 - 11\/04: 10AM - 7PM, 11\/05: 7AM - 8PM","votingPeriod":4,"latitude":33.954888,"longitude":-117.998687},{"locationID":5357,"name":"La Tijera K-8 Academy of Excellence, Gymnasium","hours":"11\/02 - 11\/04: 10AM - 7PM, 11\/05: 7AM - 8PM","votingPeriod":4,"latitude":33.980909,"longitude":-118.369311},{"locationID":14938,"name":"Lafayette Multi-Purpose Comm Center, Club Room A","hours":"11\/02 - 11\/04: 10AM - 7PM, 11\/05: 7AM - 8PM","votingPeriod":4,"latitude":34.062032,"longitude":-118.28331},{"locationID":13099,"name":"LAFD Station 5, Community Room","hours":"11\/02 - 11\/04: 10AM - 7PM, 11\/05: 7AM - 8PM","votingPeriod":4,"latitude":33.955584,"longitude":-118.40408},{"locationID":195,"name":"Lake View Terrace Branch Library, Meeting Room","hours":"11\/02 - 11\/04: 10AM - 7PM, 11\/05: 7AM - 8PM","votingPeriod":4,"latitude":34.272859,"longitude":-118.393912},{"locationID":13175,"name":"Lakewood Country Club, Hacienda Room","hours":"11\/02 - 11\/04: 10AM - 7PM, 11\/05: 7AM - 8PM","votingPeriod":4,"latitude":33.833166,"longitude":-118.154184},{"locationID":13793,"name":"Lakewood Youth Center, East and West Rooms","hours":"11\/02 - 11\/04: 10AM - 7PM, 11\/05: 7AM - 8PM","votingPeriod":4,"latitude":33.842947,"longitude":-118.115974},{"locationID":12969,"name":"Lambert Park, Auditorium","hours":"10\/26 - 11\/04: 10AM - 7PM, 11\/05: 7AM - 8PM","votingPeriod":11,"latitude":34.084995,"longitude":-118.019544},{"locationID":26525,"name":"Lancaster Community Center, Multi-Purpose Room","hours":"11\/02 - 11\/04: 10AM - 7PM, 11\/05: 7AM - 8PM","votingPeriod":4,"latitude":34.694321,"longitude":-118.134698},{"locationID":118,"name":"Lancaster Library, Anna Davis Meeting Room","hours":"10\/26 - 11\/04: 10AM - 7PM, 11\/05: 7AM - 8PM","votingPeriod":11,"latitude":34.698614,"longitude":-118.139917},{"locationID":5896,"name":"Langdon Avenue Elementary School, Auditorium","hours":"11\/02 - 11\/04: 10AM - 7PM, 11\/05: 7AM - 8PM","votingPeriod":4,"latitude":34.230961,"longitude":-118.470057},{"locationID":13168,"name":"Langley Senior Center, Friendship Room","hours":"11\/02 - 11\/04: 10AM - 7PM, 11\/05: 7AM - 8PM","votingPeriod":4,"latitude":34.065925,"longitude":-118.128032},{"locationID":18554,"name":"Las Flores Home Ed Ind Study Academy, Cafeteria","hours":"11\/02 - 11\/04: 10AM - 7PM, 11\/05: 7AM - 8PM","votingPeriod":4,"latitude":33.876926,"longitude":-118.119438},{"locationID":498,"name":"Las Palmas Park, Arts and Crafts Room","hours":"10\/26 - 11\/04: 10AM - 7PM, 11\/05: 7AM - 8PM","votingPeriod":11,"latitude":34.285711,"longitude":-118.449605},{"locationID":20180,"name":"Las Palmas Senior Enrichment Center, Auditorium and Lobby","hours":"10\/26 - 11\/04: 10AM - 7PM, 11\/05: 7AM - 8PM","votingPeriod":11,"latitude":34.104751,"longitude":-118.335709},{"locationID":15009,"name":"Las Virgenes Municipal Water District, Pure Water Demonstration Facility","hours":"11\/02 - 11\/04: 10AM - 7PM, 11\/05: 7AM - 8PM","votingPeriod":4,"latitude":34.136497,"longitude":-118.699949},{"locationID":14386,"name":"Latin Paradise Banquet Hall, Banquet Hall","hours":"10\/26 - 11\/04: 10AM - 7PM, 11\/05: 7AM - 8PM","votingPeriod":11,"latitude":34.185916,"longitude":-118.449031},{"locationID":20889,"name":"Laurel Elementary School, Cafeteria","hours":"11\/02 - 11\/04: 10AM - 7PM, 11\/05: 7AM - 8PM","votingPeriod":4,"latitude":33.956363,"longitude":-118.036277},{"locationID":13264,"name":"Leland R Weaver Library, Meeting Room","hours":"11\/02 - 11\/04: 10AM - 7PM, 11\/05: 7AM - 8PM","votingPeriod":4,"latitude":33.944141,"longitude":-118.201331},{"locationID":14388,"name":"Leland Street Elementary School, Auditorium","hours":"11\/02 - 11\/04: 10AM - 7PM, 11\/05: 7AM - 8PM","votingPeriod":4,"latitude":33.724578,"longitude":-118.300842},{"locationID":567,"name":"Lemon Grove Recreation Center, Auditorium","hours":"11\/02 - 11\/04: 10AM - 7PM, 11\/05: 7AM - 8PM","votingPeriod":4,"latitude":34.086372,"longitude":-118.304629},{"locationID":13265,"name":"Lennox Library, Meeting Room","hours":"11\/02 - 11\/04: 10AM - 7PM, 11\/05: 7AM - 8PM","votingPeriod":4,"latitude":33.93844,"longitude":-118.352238},{"locationID":24473,"name":"Lennox Park, Community Room A","hours":"11\/02 - 11\/04: 10AM - 7PM, 11\/05: 7AM - 8PM","votingPeriod":4,"latitude":33.937472,"longitude":-118.358976},{"locationID":2044,"name":"Levy Adult Center, Multi-Purpose Room","hours":"11\/02 - 11\/04: 10AM - 7PM, 11\/05: 7AM - 8PM","votingPeriod":4,"latitude":33.817805,"longitude":-118.345547},{"locationID":11754,"name":"Liberty II Facility, Multi-Purpose Room","hours":"11\/02 - 11\/04: 10AM - 7PM, 11\/05: 7AM - 8PM","votingPeriod":4,"latitude":33.85719,"longitude":-118.100234},{"locationID":23932,"name":"Lighthouse Baptist Church, Youth Room","hours":"11\/02 - 11\/04: 10AM - 7PM, 11\/05: 7AM - 8PM","votingPeriod":4,"latitude":34.101854,"longitude":-117.761246},{"locationID":24483,"name":"Lincoln Middle School, Theatre and Lobby","hours":"11\/02 - 11\/04: 10AM - 7PM, 11\/05: 7AM - 8PM","votingPeriod":4,"latitude":34.028911,"longitude":-118.490237},{"locationID":20913,"name":"Live Oak Park Community Center, Live Oak 3","hours":"11\/02 - 11\/04: 10AM - 7PM, 11\/05: 7AM - 8PM","votingPeriod":4,"latitude":34.102852,"longitude":-118.047837},{"locationID":11727,"name":"Living Stone Cathedral of Worship, Fellowship Hall","hours":"11\/02 - 11\/04: 10AM - 7PM, 11\/05: 7AM - 8PM","votingPeriod":4,"latitude":34.567664,"longitude":-117.952634},{"locationID":1968,"name":"Logan Academy of Global Ecology, Auditorium","hours":"11\/02 - 11\/04: 10AM - 7PM, 11\/05: 7AM - 8PM","votingPeriod":4,"latitude":34.078677,"longitude":-118.257831},{"locationID":10854,"name":"Lomita Park, Tom Rico Center Community Room","hours":"11\/02 - 11\/04: 10AM - 7PM, 11\/05: 7AM - 8PM","votingPeriod":4,"latitude":33.803292,"longitude":-118.314205},{"locationID":10547,"name":"Long Beach City College, Multi-Purpose Room T1200","hours":"10\/26 - 11\/04: 10AM - 7PM, 11\/05: 7AM - 8PM","votingPeriod":11,"latitude":33.831423,"longitude":-118.136082},{"locationID":19595,"name":"Long Beach City College-Pacific Coast, Room GG238","hours":"10\/26 - 11\/04: 10AM - 7PM, 11\/05: 7AM - 8PM","votingPeriod":11,"latitude":33.790879,"longitude":-118.174367},{"locationID":12395,"name":"Long Beach Senior Center, Auditorium","hours":"10\/26 - 11\/04: 10AM - 7PM, 11\/05: 7AM - 8PM","votingPeriod":11,"latitude":33.771273,"longitude":-118.176961},{"locationID":18390,"name":"Long Beach Sportsman's Club, Hall","hours":"11\/02 - 11\/04: 10AM - 7PM, 11\/05: 7AM - 8PM","votingPeriod":4,"latitude":33.822416,"longitude":-118.215793},{"locationID":12808,"name":"Los Angeles Academy Middle School, Multi-Purpose Room","hours":"11\/02 - 11\/04: 10AM - 7PM, 11\/05: 7AM - 8PM","votingPeriod":4,"latitude":33.990531,"longitude":-118.263639},{"locationID":4271,"name":"Los Angeles City College, Student Union 3rd Flr-Multi-Purpose Rm","hours":"11\/02 - 11\/04: 10AM - 7PM, 11\/05: 7AM - 8PM","votingPeriod":4,"latitude":34.085613,"longitude":-118.293068},{"locationID":13094,"name":"Los Angeles County Fire Station 93, Apparatus Bay","hours":"11\/02 - 11\/04: 10AM - 7PM, 11\/05: 7AM - 8PM","votingPeriod":4,"latitude":34.572163,"longitude":-118.028983},{"locationID":17005,"name":"Los Angeles Harbor College, Dance Studio Rooms 140 and 141","hours":"11\/02 - 11\/04: 10AM - 7PM, 11\/05: 7AM - 8PM","votingPeriod":4,"latitude":33.782642,"longitude":-118.282335},{"locationID":14534,"name":"Los Angeles High School, Memorial Hall","hours":"11\/02 - 11\/04: 10AM - 7PM, 11\/05: 7AM - 8PM","votingPeriod":4,"latitude":34.056004,"longitude":-118.332226},{"locationID":20910,"name":"Los Angeles Mission College, Campus Center","hours":"11\/02 - 11\/04: 10AM - 7PM, 11\/05: 7AM - 8PM","votingPeriod":4,"latitude":34.315826,"longitude":-118.420087},{"locationID":13187,"name":"Los Angeles Pierce College, Building 600","hours":"11\/02 - 11\/04: 10AM - 7PM, 11\/05: 7AM - 8PM","votingPeriod":4,"latitude":34.182796,"longitude":-118.571137},{"locationID":4519,"name":"Los Angeles Southwest College, SOCTE Bldg Multi-Purpose Room 127","hours":"10\/26 - 11\/04: 10AM - 7PM, 11\/05: 7AM - 8PM","votingPeriod":11,"latitude":33.929882,"longitude":-118.306541},{"locationID":20971,"name":"Los Angeles Trade Technical College, Lib Arts Bldg Multi-Purpose Room F5-101","hours":"11\/02 - 11\/04: 10AM - 7PM, 11\/05: 7AM - 8PM","votingPeriod":4,"latitude":34.029708,"longitude":-118.270522},{"locationID":14663,"name":"Los Angeles Valley College, Cafeteria","hours":"10\/26 - 11\/04: 10AM - 7PM, 11\/05: 7AM - 8PM","votingPeriod":11,"latitude":34.176592,"longitude":-118.419937},{"locationID":590,"name":"Lou Costello Recreation Center, Senior Center","hours":"11\/02 - 11\/04: 10AM - 7PM, 11\/05: 7AM - 8PM","votingPeriod":4,"latitude":34.02054,"longitude":-118.210695},{"locationID":2402,"name":"Louis Armstrong Middle School, Gymnasium","hours":"11\/02 - 11\/04: 10AM - 7PM, 11\/05: 7AM - 8PM","votingPeriod":4,"latitude":34.164265,"longitude":-118.427607},{"locationID":11783,"name":"Loyola Marymount University, McIntosh Center","hours":"11\/02 - 11\/04: 10AM - 7PM, 11\/05: 7AM - 8PM","votingPeriod":4,"latitude":33.967053,"longitude":-118.422437},{"locationID":12249,"name":"Luther Burbank Elementary School, Multi-Purpose Room","hours":"11\/02 - 11\/04: 10AM - 7PM, 11\/05: 7AM - 8PM","votingPeriod":4,"latitude":33.870458,"longitude":-118.087516},{"locationID":17100,"name":"Lynwood Community Transit Center, Gymnasium","hours":"11\/02 - 11\/04: 10AM - 7PM, 11\/05: 7AM - 8PM","votingPeriod":4,"latitude":33.927757,"longitude":-118.199641},{"locationID":3193,"name":"MacArthur Park, Social Hall","hours":"11\/02 - 11\/04: 10AM - 7PM, 11\/05: 7AM - 8PM","votingPeriod":4,"latitude":33.782891,"longitude":-118.174575},{"locationID":25203,"name":"Machinists Union-Jack Irving Hall, IAM and AW Local Lodge 1484","hours":"11\/02 - 11\/04: 10AM - 7PM, 11\/05: 7AM - 8PM","votingPeriod":4,"latitude":33.788437,"longitude":-118.263395},{"locationID":2971,"name":"Magnolia Park United Methodist Church, Fellowship Hall","hours":"10\/26 - 11\/04: 10AM - 7PM, 11\/05: 7AM - 8PM","votingPeriod":11,"latitude":34.170437,"longitude":-118.338595},{"locationID":12330,"name":"Malabar Street Elementary School, Auditorium","hours":"11\/02 - 11\/04: 10AM - 7PM, 11\/05: 7AM - 8PM","votingPeriod":4,"latitude":34.044268,"longitude":-118.194455},{"locationID":9626,"name":"Malibu City Hall, Multi-Purpose Room","hours":"10\/26 - 11\/04: 10AM - 7PM, 11\/05: 7AM - 8PM","votingPeriod":11,"latitude":34.039247,"longitude":-118.693032},{"locationID":19954,"name":"Malibu High School, Parent Center A-006","hours":"11\/02 - 11\/04: 10AM - 7PM, 11\/05: 7AM - 8PM","votingPeriod":4,"latitude":34.024379,"longitude":-118.827884},{"locationID":19979,"name":"Mann UCLA Community School, Auditorium","hours":"11\/02 - 11\/04: 10AM - 7PM, 11\/05: 7AM - 8PM","votingPeriod":4,"latitude":33.976741,"longitude":-118.311477},{"locationID":593,"name":"Mar Vista Gardens Recreation Center, Community Room","hours":"11\/02 - 11\/04: 10AM - 7PM, 11\/05: 7AM - 8PM","votingPeriod":4,"latitude":33.993416,"longitude":-118.410168},{"locationID":1859,"name":"Mar Vista Recreation Center, Auditorium","hours":"10\/26 - 11\/04: 10AM - 7PM, 11\/05: 7AM - 8PM","votingPeriod":11,"latitude":34.017846,"longitude":-118.429001},{"locationID":18653,"name":"Marie Kerr Park, Community Building","hours":"10\/26 - 11\/04: 10AM - 7PM, 11\/05: 7AM - 8PM","votingPeriod":11,"latitude":34.603356,"longitude":-118.182265},{"locationID":13403,"name":"Marine Avenue Park, Rocketship Hall","hours":"11\/02 - 11\/04: 10AM - 7PM, 11\/05: 7AM - 8PM","votingPeriod":4,"latitude":33.895059,"longitude":-118.384464},{"locationID":10570,"name":"Marine Park, Auditorium","hours":"11\/02 - 11\/04: 10AM - 7PM, 11\/05: 7AM - 8PM","votingPeriod":4,"latitude":34.006163,"longitude":-118.465966},{"locationID":11062,"name":"Martin Luther King Jr Outpatient Center, Interns-Residents Bldg Terrace Hall Rm","hours":"11\/02 - 11\/04: 10AM - 7PM, 11\/05: 7AM - 8PM","votingPeriod":4,"latitude":33.922806,"longitude":-118.245898},{"locationID":1873,"name":"Marvin Avenue Elementary School, Auditorium","hours":"11\/02 - 11\/04: 10AM - 7PM, 11\/05: 7AM - 8PM","votingPeriod":4,"latitude":34.035462,"longitude":-118.364137},{"locationID":24540,"name":"Mary K Giordano Regional Transit Center, 210 Training Room","hours":"10\/26 - 11\/04: 10AM - 7PM, 11\/05: 7AM - 8PM","votingPeriod":11,"latitude":33.841879,"longitude":-118.329372},{"locationID":24628,"name":"Mary M Bethune Park, Community Room","hours":"11\/02 - 11\/04: 10AM - 7PM, 11\/05: 7AM - 8PM","votingPeriod":4,"latitude":33.984063,"longitude":-118.25249},{"locationID":14670,"name":"Maurice Sendak Elementary School, Multi-Purpose Room","hours":"11\/02 - 11\/04: 10AM - 7PM, 11\/05: 7AM - 8PM","votingPeriod":4,"latitude":34.178041,"longitude":-118.379884},{"locationID":2959,"name":"Maxine Waters Employment Center, Mobley Center","hours":"11\/02 - 11\/04: 10AM - 7PM, 11\/05: 7AM - 8PM","votingPeriod":4,"latitude":33.937527,"longitude":-118.25462},{"locationID":4836,"name":"Maxwell Academy, Cafe","hours":"11\/02 - 11\/04: 10AM - 7PM, 11\/05: 7AM - 8PM","votingPeriod":4,"latitude":34.128281,"longitude":-117.988904},{"locationID":14896,"name":"Mayberry Street Elementary School, Multi-Purpose Room","hours":"11\/02 - 11\/04: 10AM - 7PM, 11\/05: 7AM - 8PM","votingPeriod":4,"latitude":34.083996,"longitude":-118.264384},{"locationID":3084,"name":"Mayfair Park, Activity Room","hours":"10\/26 - 11\/04: 10AM - 7PM, 11\/05: 7AM - 8PM","votingPeriod":11,"latitude":33.859508,"longitude":-118.133155},{"locationID":9681,"name":"McCambridge Recreation Center, Room 4","hours":"11\/02 - 11\/04: 10AM - 7PM, 11\/05: 7AM - 8PM","votingPeriod":4,"latitude":34.193308,"longitude":-118.320684},{"locationID":6762,"name":"Melrose Avenue Elementary School, Auditorium","hours":"11\/02 - 11\/04: 10AM - 7PM, 11\/05: 7AM - 8PM","votingPeriod":4,"latitude":34.084221,"longitude":-118.345395},{"locationID":12849,"name":"Menlo Avenue Elementary School, Auditorium","hours":"11\/02 - 11\/04: 10AM - 7PM, 11\/05: 7AM - 8PM","votingPeriod":4,"latitude":34.007737,"longitude":-118.289782},{"locationID":14407,"name":"Mesa Robles School, Multi-Purpose Room","hours":"11\/02 - 11\/04: 10AM - 7PM, 11\/05: 7AM - 8PM","votingPeriod":4,"latitude":33.992711,"longitude":-117.960996},{"locationID":13232,"name":"Metro Headquarters, Plaza Level Lobby","hours":"11\/02 - 11\/04: 10AM - 7PM, 11\/05: 7AM - 8PM","votingPeriod":4,"latitude":34.056327,"longitude":-118.232966},{"locationID":21026,"name":"Michelle and Barack Obama Sport Complex, Community Room","hours":"11\/02 - 11\/04: 10AM - 7PM, 11\/05: 7AM - 8PM","votingPeriod":4,"latitude":34.022402,"longitude":-118.351524},{"locationID":17862,"name":"Mid Valley Senior Center, Main Room","hours":"10\/26 - 11\/04: 10AM - 7PM, 11\/05: 7AM - 8PM","votingPeriod":11,"latitude":34.229736,"longitude":-118.457781},{"locationID":5969,"name":"Mill Elementary School, Multi-Purpose Room Gate M","hours":"11\/02 - 11\/04: 10AM - 7PM, 11\/05: 7AM - 8PM","votingPeriod":4,"latitude":34.015219,"longitude":-118.04283},{"locationID":20964,"name":"Millennium Biltmore Hotel Los Angeles, Heinsbergen Room","hours":"11\/02 - 11\/04: 10AM - 7PM, 11\/05: 7AM - 8PM","votingPeriod":4,"latitude":34.049655,"longitude":-118.254138},{"locationID":14408,"name":"Mission City Church, Gymnasium","hours":"11\/02 - 11\/04: 10AM - 7PM, 11\/05: 7AM - 8PM","votingPeriod":4,"latitude":34.291306,"longitude":-118.430975},{"locationID":3602,"name":"MLK Jr Therapeutic Recreation Center, Community Room","hours":"11\/02 - 11\/04: 10AM - 7PM, 11\/05: 7AM - 8PM","votingPeriod":4,"latitude":34.013955,"longitude":-118.308747},{"locationID":2948,"name":"Monrovia High School, Room 210","hours":"11\/02 - 11\/04: 10AM - 7PM, 11\/05: 7AM - 8PM","votingPeriod":4,"latitude":34.146406,"longitude":-118.016929},{"locationID":235,"name":"Monrovia Public Library, Community Room","hours":"10\/26 - 11\/04: 10AM - 7PM, 11\/05: 7AM - 8PM","votingPeriod":11,"latitude":34.148587,"longitude":-118.002227},{"locationID":6772,"name":"Montague Charter Academy, Auditorium","hours":"11\/02 - 11\/04: 10AM - 7PM, 11\/05: 7AM - 8PM","votingPeriod":4,"latitude":34.244341,"longitude":-118.415342},{"locationID":2470,"name":"Montara Avenue Elementary School, Multi-Purpose Room","hours":"11\/02 - 11\/04: 10AM - 7PM, 11\/05: 7AM - 8PM","votingPeriod":4,"latitude":33.944461,"longitude":-118.218573},{"locationID":12815,"name":"Montebello Foursquare Church, Fellowship Hall","hours":"11\/02 - 11\/04: 10AM - 7PM, 11\/05: 7AM - 8PM","votingPeriod":4,"latitude":34.007213,"longitude":-118.10651},{"locationID":5829,"name":"Montebello Gardens Elementary School, Cafetorium","hours":"11\/02 - 11\/04: 10AM - 7PM, 11\/05: 7AM - 8PM","votingPeriod":4,"latitude":34.008897,"longitude":-118.089675},{"locationID":467,"name":"Montebello-Commerce YMCA, Multi-Purpose Room","hours":"10\/26 - 11\/04: 10AM - 7PM, 11\/05: 7AM - 8PM","votingPeriod":11,"latitude":34.021012,"longitude":-118.120333},{"locationID":18649,"name":"Moose Family Center, Lodge Hall","hours":"11\/02 - 11\/04: 10AM - 7PM, 11\/05: 7AM - 8PM","votingPeriod":4,"latitude":33.917254,"longitude":-118.169276},{"locationID":26316,"name":"Morning Star Christian Church, Robinson Hall A-C","hours":"10\/26 - 11\/04: 10AM - 7PM, 11\/05: 7AM - 8PM","votingPeriod":11,"latitude":34.170419,"longitude":-118.130406},{"locationID":5891,"name":"Mountain View Elementary School, Auditorium","hours":"11\/02 - 11\/04: 10AM - 7PM, 11\/05: 7AM - 8PM","votingPeriod":4,"latitude":34.248876,"longitude":-118.272333},{"locationID":12290,"name":"Mountain View Estates, Clubhouse","hours":"11\/02 - 11\/04: 10AM - 7PM, 11\/05: 7AM - 8PM","votingPeriod":4,"latitude":34.574627,"longitude":-118.070416},{"locationID":14412,"name":"Mountain View Family Center, Central Room and Room 1","hours":"11\/02 - 11\/04: 10AM - 7PM, 11\/05: 7AM - 8PM","votingPeriod":4,"latitude":34.060341,"longitude":-118.023837},{"locationID":11766,"name":"Mt San Antonio College, Building 6-160","hours":"11\/02 - 11\/04: 10AM - 7PM, 11\/05: 7AM - 8PM","votingPeriod":4,"latitude":34.046761,"longitude":-117.84699},{"locationID":12620,"name":"Napa Street Elementary School, Auditorium","hours":"11\/02 - 11\/04: 10AM - 7PM, 11\/05: 7AM - 8PM","votingPeriod":4,"latitude":34.226081,"longitude":-118.546857},{"locationID":26103,"name":"National Polytechnic College, Satellite Classroom","hours":"11\/02 - 11\/04: 10AM - 7PM, 11\/05: 7AM - 8PM","votingPeriod":4,"latitude":33.86053,"longitude":-118.143791},{"locationID":6093,"name":"Neff Park Barn, Barn Hall","hours":"11\/02 - 11\/04: 10AM - 7PM, 11\/05: 7AM - 8PM","votingPeriod":4,"latitude":33.898567,"longitude":-118.026076},{"locationID":18880,"name":"Neighborhood Youth Center, Gymnasium","hours":"11\/02 - 11\/04: 10AM - 7PM, 11\/05: 7AM - 8PM","votingPeriod":4,"latitude":33.968219,"longitude":-118.160909},{"locationID":5820,"name":"Neptunian Woman's Club, North Hall","hours":"11\/02 - 11\/04: 10AM - 7PM, 11\/05: 7AM - 8PM","votingPeriod":4,"latitude":33.883797,"longitude":-118.408679},{"locationID":14213,"name":"New Hope Community Church, Activity Center","hours":"11\/02 - 11\/04: 10AM - 7PM, 11\/05: 7AM - 8PM","votingPeriod":4,"latitude":34.258905,"longitude":-118.315448},{"locationID":2266,"name":"New Philadelphia AME Church, Butler Hall","hours":"11\/02 - 11\/04: 10AM - 7PM, 11\/05: 7AM - 8PM","votingPeriod":4,"latitude":33.870529,"longitude":-118.176994},{"locationID":17173,"name":"New Season LA, Rooms 2 and 3","hours":"11\/02 - 11\/04: 10AM - 7PM, 11\/05: 7AM - 8PM","votingPeriod":4,"latitude":33.963476,"longitude":-118.122667},{"locationID":14214,"name":"New Vista Middle School, Gymnasium","hours":"11\/02 - 11\/04: 10AM - 7PM, 11\/05: 7AM - 8PM","votingPeriod":4,"latitude":34.673632,"longitude":-118.115468},{"locationID":13866,"name":"Nickerson Gardens Boys and Girls Club, Gymnasium","hours":"11\/02 - 11\/04: 10AM - 7PM, 11\/05: 7AM - 8PM","votingPeriod":4,"latitude":33.932057,"longitude":-118.247262},{"locationID":13356,"name":"Normandale Recreation Center, Classroom","hours":"11\/02 - 11\/04: 10AM - 7PM, 11\/05: 7AM - 8PM","votingPeriod":4,"latitude":33.823164,"longitude":-118.301157},{"locationID":2655,"name":"North High School, East Cafeteria","hours":"11\/02 - 11\/04: 10AM - 7PM, 11\/05: 7AM - 8PM","votingPeriod":4,"latitude":33.86525,"longitude":-118.336966},{"locationID":1949,"name":"North Hollywood Recreation Center, Senior Center","hours":"10\/26 - 11\/04: 10AM - 7PM, 11\/05: 7AM - 8PM","votingPeriod":11,"latitude":34.167488,"longitude":-118.379919},{"locationID":4544,"name":"North Weddington Recreation Center, Gymnasium","hours":"11\/02 - 11\/04: 10AM - 7PM, 11\/05: 7AM - 8PM","votingPeriod":4,"latitude":34.145891,"longitude":-118.367153},{"locationID":7762,"name":"Northeast Valley Multipurpose Sr Center, Multi-Purpose Room","hours":"11\/02 - 11\/04: 10AM - 7PM, 11\/05: 7AM - 8PM","votingPeriod":4,"latitude":34.276242,"longitude":-118.413205},{"locationID":14999,"name":"Northridge Middle School, Multi-Purpose Room","hours":"11\/02 - 11\/04: 10AM - 7PM, 11\/05: 7AM - 8PM","votingPeriod":4,"latitude":34.224363,"longitude":-118.524242},{"locationID":2821,"name":"Norwalk Masonic Center, Dining Room","hours":"11\/02 - 11\/04: 10AM - 7PM, 11\/05: 7AM - 8PM","votingPeriod":4,"latitude":33.902776,"longitude":-118.069343},{"locationID":13306,"name":"Norwalk Senior Center, Activity Room A","hours":"11\/02 - 11\/04: 10AM - 7PM, 11\/05: 7AM - 8PM","votingPeriod":4,"latitude":33.903256,"longitude":-118.080876},{"locationID":13246,"name":"Nueva Maravilla Housing Community, Community Room","hours":"11\/02 - 11\/04: 10AM - 7PM, 11\/05: 7AM - 8PM","votingPeriod":4,"latitude":34.041092,"longitude":-118.159118},{"locationID":13316,"name":"Oakwood Recreation Center, Annex Room","hours":"10\/26 - 11\/04: 10AM - 7PM, 11\/05: 7AM - 8PM","votingPeriod":11,"latitude":33.994651,"longitude":-118.463755},{"locationID":11756,"name":"Occidental College, Herrick Memorial Chapel-Interfaith Ctr","hours":"11\/02 - 11\/04: 10AM - 7PM, 11\/05: 7AM - 8PM","votingPeriod":4,"latitude":34.126304,"longitude":-118.212343},{"locationID":14523,"name":"Octavia E Butler Magnet, Gymnasium","hours":"11\/02 - 11\/04: 10AM - 7PM, 11\/05: 7AM - 8PM","votingPeriod":4,"latitude":34.172798,"longitude":-118.146811},{"locationID":8035,"name":"Olive Vista Middle School, Miles Auditorium","hours":"11\/02 - 11\/04: 10AM - 7PM, 11\/05: 7AM - 8PM","votingPeriod":4,"latitude":34.312154,"longitude":-118.45059},{"locationID":23254,"name":"One Santa Fe, Gallery","hours":"11\/02 - 11\/04: 10AM - 7PM, 11\/05: 7AM - 8PM","votingPeriod":4,"latitude":34.045739,"longitude":-118.232339},{"locationID":12921,"name":"Our Lady of Guadalupe Church, Cafeteria","hours":"10\/26 - 11\/04: 10AM - 7PM, 11\/05: 7AM - 8PM","votingPeriod":11,"latitude":34.042131,"longitude":-118.179543},{"locationID":21006,"name":"Our Lady of Perpetual Help Pastoral Ctr, Junipero Serra and Our Lady Rooms","hours":"11\/02 - 11\/04: 10AM - 7PM, 11\/05: 7AM - 8PM","votingPeriod":4,"latitude":34.380442,"longitude":-118.536766},{"locationID":6819,"name":"Our Savior Lutheran Church, Fellowship Hall","hours":"11\/02 - 11\/04: 10AM - 7PM, 11\/05: 7AM - 8PM","votingPeriod":4,"latitude":34.126148,"longitude":-118.050381},{"locationID":6031,"name":"Owensmouth Gardens, Community Room","hours":"11\/02 - 11\/04: 10AM - 7PM, 11\/05: 7AM - 8PM","votingPeriod":4,"latitude":34.185154,"longitude":-118.601238},{"locationID":18636,"name":"Pacific Palisades Presbyterian Church, Janes Hall","hours":"11\/02 - 11\/04: 10AM - 7PM, 11\/05: 7AM - 8PM","votingPeriod":4,"latitude":34.049062,"longitude":-118.532602},{"locationID":12943,"name":"Pacoima Middle School, Social Hall","hours":"11\/02 - 11\/04: 10AM - 7PM, 11\/05: 7AM - 8PM","votingPeriod":4,"latitude":34.248883,"longitude":-118.424784},{"locationID":9542,"name":"Palisades Branch Library, Meeting Room","hours":"11\/02 - 11\/04: 10AM - 7PM, 11\/05: 7AM - 8PM","votingPeriod":4,"latitude":34.044041,"longitude":-118.525025},{"locationID":19550,"name":"Palmdale Courthouse, Operations Room 400","hours":"11\/02 - 11\/04: 10AM - 7PM, 11\/05: 7AM - 8PM","votingPeriod":4,"latitude":34.577292,"longitude":-118.114702},{"locationID":6017,"name":"Palmdale Elks Lodge 2027, Meeting Room","hours":"11\/02 - 11\/04: 10AM - 7PM, 11\/05: 7AM - 8PM","votingPeriod":4,"latitude":34.587967,"longitude":-118.08057},{"locationID":20921,"name":"Palmdale Oasis Park Recreation Center, Meeting Rooms 2 and 3","hours":"10\/26 - 11\/04: 10AM - 7PM, 11\/05: 7AM - 8PM","votingPeriod":11,"latitude":34.557029,"longitude":-118.061408},{"locationID":532,"name":"Palms Recreation Center, Auditorium 1 and 2","hours":"11\/02 - 11\/04: 10AM - 7PM, 11\/05: 7AM - 8PM","votingPeriod":4,"latitude":34.033084,"longitude":-118.417557},{"locationID":4378,"name":"Palomares Park, Senior Center","hours":"11\/02 - 11\/04: 10AM - 7PM, 11\/05: 7AM - 8PM","votingPeriod":4,"latitude":34.09071,"longitude":-117.741967},{"locationID":2232,"name":"Palos Verdes Intermediate School, Multi-Purpose Room","hours":"11\/02 - 11\/04: 10AM - 7PM, 11\/05: 7AM - 8PM","votingPeriod":4,"latitude":33.776836,"longitude":-118.412032},{"locationID":8251,"name":"Pan American Park, Gymnasium","hours":"11\/02 - 11\/04: 10AM - 7PM, 11\/05: 7AM - 8PM","votingPeriod":4,"latitude":33.841347,"longitude":-118.130851},{"locationID":11792,"name":"Park View Educational Complex, Gymnasium","hours":"11\/02 - 11\/04: 10AM - 7PM, 11\/05: 7AM - 8PM","votingPeriod":4,"latitude":34.688489,"longitude":-118.142514},{"locationID":17113,"name":"Parnell Park Comm and Senior Center, Walnut Room 1","hours":"11\/02 - 11\/04: 10AM - 7PM, 11\/05: 7AM - 8PM","votingPeriod":4,"latitude":33.937272,"longitude":-118.002527},{"locationID":13885,"name":"Pasadena City College, Creveling Lounge","hours":"11\/02 - 11\/04: 10AM - 7PM, 11\/05: 7AM - 8PM","votingPeriod":4,"latitude":34.144888,"longitude":-118.120176},{"locationID":2400,"name":"Paul Revere Middle School, Library","hours":"11\/02 - 11\/04: 10AM - 7PM, 11\/05: 7AM - 8PM","votingPeriod":4,"latitude":34.05486,"longitude":-118.49455},{"locationID":19122,"name":"Pearl Banquet Hall, Junior Hall","hours":"11\/02 - 11\/04: 10AM - 7PM, 11\/05: 7AM - 8PM","votingPeriod":4,"latitude":34.23037,"longitude":-118.367425},{"locationID":9990,"name":"Perry Park, Teen Center","hours":"11\/02 - 11\/04: 10AM - 7PM, 11\/05: 7AM - 8PM","votingPeriod":4,"latitude":33.86931,"longitude":-118.370316},{"locationID":446,"name":"Philadelphia Park Community Center, Main Room","hours":"11\/02 - 11\/04: 10AM - 7PM, 11\/05: 7AM - 8PM","votingPeriod":4,"latitude":34.033065,"longitude":-117.742217},{"locationID":20936,"name":"Pico Park Community Center, Auditorium A and B","hours":"11\/02 - 11\/04: 10AM - 7PM, 11\/05: 7AM - 8PM","votingPeriod":4,"latitude":34.007429,"longitude":-118.072771},{"locationID":140,"name":"Pico Rivera Library, Meeting Room","hours":"10\/26 - 11\/04: 10AM - 7PM, 11\/05: 7AM - 8PM","votingPeriod":11,"latitude":33.992076,"longitude":-118.089323},{"locationID":1839,"name":"Pinewood Avenue Elementary School, Auditorium","hours":"11\/02 - 11\/04: 10AM - 7PM, 11\/05: 7AM - 8PM","votingPeriod":4,"latitude":34.252622,"longitude":-118.285025},{"locationID":24714,"name":"Pio Pico Middle School, Multi-Purpose Room","hours":"11\/02 - 11\/04: 10AM - 7PM, 11\/05: 7AM - 8PM","votingPeriod":4,"latitude":34.045596,"longitude":-118.317337},{"locationID":1769,"name":"Pioneer High School, Large Gymnasium","hours":"11\/02 - 11\/04: 10AM - 7PM, 11\/05: 7AM - 8PM","votingPeriod":4,"latitude":33.970024,"longitude":-118.080162},{"locationID":9057,"name":"Plummer Park Community Center, Fiesta Hall","hours":"10\/26 - 11\/04: 10AM - 7PM, 11\/05: 7AM - 8PM","votingPeriod":11,"latitude":34.092358,"longitude":-118.351408},{"locationID":13013,"name":"Primera Iglesia Bautista El Peregrino, Meeting Room","hours":"11\/02 - 11\/04: 10AM - 7PM, 11\/05: 7AM - 8PM","votingPeriod":4,"latitude":33.953682,"longitude":-118.224098},{"locationID":3797,"name":"Progress Park, Auditorium","hours":"11\/02 - 11\/04: 10AM - 7PM, 11\/05: 7AM - 8PM","votingPeriod":4,"latitude":33.891799,"longitude":-118.150715},{"locationID":14629,"name":"PUC Lakeview Charter Academy, Multi-Purpose Room","hours":"11\/02 - 11\/04: 10AM - 7PM, 11\/05: 7AM - 8PM","votingPeriod":4,"latitude":34.280298,"longitude":-118.381663},{"locationID":13213,"name":"R N Slawson Southeast Occupational Ctr, Multi-Purpose Room","hours":"11\/02 - 11\/04: 10AM - 7PM, 11\/05: 7AM - 8PM","votingPeriod":4,"latitude":33.990654,"longitude":-118.168362},{"locationID":24487,"name":"Ralph J Bunche Middle School, Cafeteria","hours":"11\/02 - 11\/04: 10AM - 7PM, 11\/05: 7AM - 8PM","votingPeriod":4,"latitude":33.92059,"longitude":-118.227593},{"locationID":17743,"name":"Ramon Garcia Recreation Center, Preschool Building","hours":"11\/02 - 11\/04: 10AM - 7PM, 11\/05: 7AM - 8PM","votingPeriod":4,"latitude":34.027257,"longitude":-118.20695},{"locationID":5899,"name":"Ramona Elementary School, Auditorium","hours":"11\/02 - 11\/04: 10AM - 7PM, 11\/05: 7AM - 8PM","votingPeriod":4,"latitude":34.091892,"longitude":-118.29971},{"locationID":603,"name":"Ramona Hall Community Center, Banquet Hall","hours":"11\/02 - 11\/04: 10AM - 7PM, 11\/05: 7AM - 8PM","votingPeriod":4,"latitude":34.097503,"longitude":-118.205376},{"locationID":5036,"name":"Ranch Hills Elementary School, Cafeteria","hours":"11\/02 - 11\/04: 10AM - 7PM, 11\/05: 7AM - 8PM","votingPeriod":4,"latitude":34.035595,"longitude":-117.785197},{"locationID":5884,"name":"Ranchito Avenue Elementary School, Auditorium","hours":"11\/02 - 11\/04: 10AM - 7PM, 11\/05: 7AM - 8PM","votingPeriod":4,"latitude":34.214902,"longitude":-118.434418},{"locationID":14436,"name":"Rancho Del Mar High School, Multi-Purpose Room","hours":"11\/02 - 11\/04: 10AM - 7PM, 11\/05: 7AM - 8PM","votingPeriod":4,"latitude":33.758434,"longitude":-118.358666},{"locationID":14583,"name":"Rancho Los Amigos National Rehab Center, Auditorium","hours":"11\/02 - 11\/04: 10AM - 7PM, 11\/05: 7AM - 8PM","votingPeriod":4,"latitude":33.929867,"longitude":-118.158706},{"locationID":11318,"name":"Red Hen Press, Literary Center","hours":"11\/02 - 11\/04: 10AM - 7PM, 11\/05: 7AM - 8PM","votingPeriod":4,"latitude":34.172773,"longitude":-118.159344},{"locationID":14016,"name":"Regis House Community Center, Library-Big Room","hours":"11\/02 - 11\/04: 10AM - 7PM, 11\/05: 7AM - 8PM","votingPeriod":4,"latitude":34.067234,"longitude":-118.272056},{"locationID":14957,"name":"Reseda Church of Christ, Fellowship Hall","hours":"10\/26 - 11\/04: 10AM - 7PM, 11\/05: 7AM - 8PM","votingPeriod":11,"latitude":34.212253,"longitude":-118.535431},{"locationID":14445,"name":"Ridgecrest Intermediate School, Auditorium","hours":"11\/02 - 11\/04: 10AM - 7PM, 11\/05: 7AM - 8PM","votingPeriod":4,"latitude":33.766407,"longitude":-118.378639},{"locationID":7046,"name":"Rinaldi Adult Center, Auditorium","hours":"11\/02 - 11\/04: 10AM - 7PM, 11\/05: 7AM - 8PM","votingPeriod":4,"latitude":34.278751,"longitude":-118.514529},{"locationID":27037,"name":"Rio Hondo College, Administration Bldg A102 Boardroom","hours":"11\/02 - 11\/04: 10AM - 7PM, 11\/05: 7AM - 8PM","votingPeriod":4,"latitude":34.019756,"longitude":-118.033692},{"locationID":23988,"name":"Rio Hondo Elementary School, Science Lab Room 33","hours":"11\/02 - 11\/04: 10AM - 7PM, 11\/05: 7AM - 8PM","votingPeriod":4,"latitude":34.103799,"longitude":-118.02013},{"locationID":11494,"name":"Rio Norte Junior High School, Multi-Purpose Room","hours":"11\/02 - 11\/04: 10AM - 7PM, 11\/05: 7AM - 8PM","votingPeriod":4,"latitude":34.45974,"longitude":-118.559233},{"locationID":14446,"name":"Rios, Lunch Room","hours":"11\/02 - 11\/04: 10AM - 7PM, 11\/05: 7AM - 8PM","votingPeriod":4,"latitude":34.021028,"longitude":-118.330063},{"locationID":414,"name":"Rivera Park Community Recreation Center, Auditorium","hours":"11\/02 - 11\/04: 10AM - 7PM, 11\/05: 7AM - 8PM","votingPeriod":4,"latitude":33.963197,"longitude":-118.096018},{"locationID":5953,"name":"Riverside Drive Elementary School, Auditorium","hours":"11\/02 - 11\/04: 10AM - 7PM, 11\/05: 7AM - 8PM","votingPeriod":4,"latitude":34.157909,"longitude":-118.416849},{"locationID":19087,"name":"Robert F Kennedy Community Schools, Middle School Gymnasium","hours":"11\/02 - 11\/04: 10AM - 7PM, 11\/05: 7AM - 8PM","votingPeriod":4,"latitude":34.059336,"longitude":-118.296552},{"locationID":24465,"name":"Robert F Kennedy Elementary School, Library","hours":"11\/02 - 11\/04: 10AM - 7PM, 11\/05: 7AM - 8PM","votingPeriod":4,"latitude":33.883033,"longitude":-118.22809},{"locationID":19111,"name":"Rogers Park, Senior Auditorium","hours":"10\/26 - 11\/04: 10AM - 7PM, 11\/05: 7AM - 8PM","votingPeriod":11,"latitude":33.968922,"longitude":-118.360015},{"locationID":21472,"name":"Ron Hockwalt Academies, Multi-Purpose Room","hours":"11\/02 - 11\/04: 10AM - 7PM, 11\/05: 7AM - 8PM","votingPeriod":4,"latitude":34.007898,"longitude":-117.856109},{"locationID":19920,"name":"Roosevelt Elementary School, Room 12","hours":"11\/02 - 11\/04: 10AM - 7PM, 11\/05: 7AM - 8PM","votingPeriod":4,"latitude":34.097253,"longitude":-118.085147},{"locationID":4390,"name":"Rosemead Community Recreation Center, Multi-Purpose Room 1","hours":"11\/02 - 11\/04: 10AM - 7PM, 11\/05: 7AM - 8PM","votingPeriod":4,"latitude":34.079248,"longitude":-118.076855},{"locationID":13329,"name":"Rosemont Pavilion, North Warehouse","hours":"11\/02 - 11\/04: 10AM - 7PM, 11\/05: 7AM - 8PM","votingPeriod":4,"latitude":34.156853,"longitude":-118.16415},{"locationID":12670,"name":"Rotary Plaza, Community Room","hours":"11\/02 - 11\/04: 10AM - 7PM, 11\/05: 7AM - 8PM","votingPeriod":4,"latitude":34.006138,"longitude":-118.394691},{"locationID":2935,"name":"Rowland Heights Community Center, Multi-Purpose Room","hours":"11\/02 - 11\/04: 10AM - 7PM, 11\/05: 7AM - 8PM","votingPeriod":4,"latitude":33.967524,"longitude":-117.90972},{"locationID":12301,"name":"Rowland High School, Hide Out","hours":"11\/02 - 11\/04: 10AM - 7PM, 11\/05: 7AM - 8PM","votingPeriod":4,"latitude":33.981946,"longitude":-117.885115},{"locationID":10717,"name":"Rowley Park, Gymnasium","hours":"11\/02 - 11\/04: 10AM - 7PM, 11\/05: 7AM - 8PM","votingPeriod":4,"latitude":33.912422,"longitude":-118.317254},{"locationID":23987,"name":"Roxbury Memorial Park Clubhouse, Lobby and Community Room","hours":"11\/02 - 11\/04: 10AM - 7PM, 11\/05: 7AM - 8PM","votingPeriod":4,"latitude":34.05741,"longitude":-118.405966},{"locationID":9339,"name":"Roy Romer Middle School, Multi-Purpose Room","hours":"11\/02 - 11\/04: 10AM - 7PM, 11\/05: 7AM - 8PM","votingPeriod":4,"latitude":34.189328,"longitude":-118.397065},{"locationID":10895,"name":"Rush Gymnasium, Gymnasium","hours":"10\/26 - 11\/04: 10AM - 7PM, 11\/05: 7AM - 8PM","votingPeriod":11,"latitude":33.884743,"longitude":-118.306104},{"locationID":363,"name":"Rustic Canyon Recreation Center, Gallery","hours":"11\/02 - 11\/04: 10AM - 7PM, 11\/05: 7AM - 8PM","votingPeriod":4,"latitude":34.037927,"longitude":-118.514494},{"locationID":12860,"name":"Sacred Heart Catholic Church, Parish Hall","hours":"11\/02 - 11\/04: 10AM - 7PM, 11\/05: 7AM - 8PM","votingPeriod":4,"latitude":34.195666,"longitude":-118.159288},{"locationID":6553,"name":"Salem Lutheran Church, Robinson Hall","hours":"11\/02 - 11\/04: 10AM - 7PM, 11\/05: 7AM - 8PM","votingPeriod":4,"latitude":33.985155,"longitude":-118.062543},{"locationID":26077,"name":"Salon Princesita, Salon","hours":"10\/26 - 11\/04: 10AM - 7PM, 11\/05: 7AM - 8PM","votingPeriod":11,"latitude":33.960271,"longitude":-118.317093},{"locationID":19451,"name":"Salon South Gate, Hall","hours":"11\/02 - 11\/04: 10AM - 7PM, 11\/05: 7AM - 8PM","votingPeriod":4,"latitude":33.957297,"longitude":-118.207335},{"locationID":4596,"name":"Salt Lake Park, Social Hall","hours":"11\/02 - 11\/04: 10AM - 7PM, 11\/05: 7AM - 8PM","votingPeriod":4,"latitude":33.972471,"longitude":-118.205698},{"locationID":10687,"name":"San Dimas Canyon Golf Course, Canyon View Room","hours":"11\/02 - 11\/04: 10AM - 7PM, 11\/05: 7AM - 8PM","votingPeriod":4,"latitude":34.136815,"longitude":-117.784758},{"locationID":326,"name":"San Dimas City Hall, Community Building","hours":"10\/26 - 11\/04: 10AM - 7PM, 11\/05: 7AM - 8PM","votingPeriod":11,"latitude":34.107194,"longitude":-117.803191},{"locationID":11810,"name":"San Fernando Recreation Park, Multi-Purpose Room","hours":"11\/02 - 11\/04: 10AM - 7PM, 11\/05: 7AM - 8PM","votingPeriod":4,"latitude":34.280962,"longitude":-118.434002},{"locationID":13152,"name":"San Fernando Spanish SDA Church, Gymnasium","hours":"11\/02 - 11\/04: 10AM - 7PM, 11\/05: 7AM - 8PM","votingPeriod":4,"latitude":34.271448,"longitude":-118.451172},{"locationID":13271,"name":"San Gabriel Library, Meeting Room 2nd Floor","hours":"10\/26 - 11\/04: 10AM - 7PM, 11\/05: 7AM - 8PM","votingPeriod":11,"latitude":34.095703,"longitude":-118.099391},{"locationID":17051,"name":"San Pedro and Peninsula YMCA, Gymnasium 2nd Floor","hours":"11\/02 - 11\/04: 10AM - 7PM, 11\/05: 7AM - 8PM","votingPeriod":4,"latitude":33.740876,"longitude":-118.299454},{"locationID":20705,"name":"Santa Anita Family YMCA, Gymnasium","hours":"11\/02 - 11\/04: 10AM - 7PM, 11\/05: 7AM - 8PM","votingPeriod":4,"latitude":34.146317,"longitude":-117.986966},{"locationID":14220,"name":"Santa Clarita Athletic Club, Front Room","hours":"11\/02 - 11\/04: 10AM - 7PM, 11\/05: 7AM - 8PM","votingPeriod":4,"latitude":34.364834,"longitude":-118.554478},{"locationID":19591,"name":"Santa Clarita United Methodist Church, Youth Hall","hours":"11\/02 - 11\/04: 10AM - 7PM, 11\/05: 7AM - 8PM","votingPeriod":4,"latitude":34.430118,"longitude":-118.534115},{"locationID":20987,"name":"Santa Monica College, Cayton Center Building Faculty Lounge","hours":"11\/02 - 11\/04: 10AM - 7PM, 11\/05: 7AM - 8PM","votingPeriod":4,"latitude":34.016948,"longitude":-118.469625},{"locationID":20238,"name":"Sato Academy, Meeting Room 104","hours":"11\/02 - 11\/04: 10AM - 7PM, 11\/05: 7AM - 8PM","votingPeriod":4,"latitude":33.779779,"longitude":-118.105876},{"locationID":10936,"name":"Saybrook Park, Community Room","hours":"11\/02 - 11\/04: 10AM - 7PM, 11\/05: 7AM - 8PM","votingPeriod":4,"latitude":34.013776,"longitude":-118.136212},{"locationID":12817,"name":"Scottsdale Townhouses, Grand Hall","hours":"11\/02 - 11\/04: 10AM - 7PM, 11\/05: 7AM - 8PM","votingPeriod":4,"latitude":33.812781,"longitude":-118.262845},{"locationID":26345,"name":"Second Baptist Church, Griffith Hall","hours":"11\/02 - 11\/04: 10AM - 7PM, 11\/05: 7AM - 8PM","votingPeriod":4,"latitude":34.021183,"longitude":-118.256212},{"locationID":14111,"name":"Sepulveda Garden Center, Meeting Room","hours":"11\/02 - 11\/04: 10AM - 7PM, 11\/05: 7AM - 8PM","votingPeriod":4,"latitude":34.165453,"longitude":-118.495409},{"locationID":8936,"name":"Sepulveda Middle School, Evans Hall","hours":"11\/02 - 11\/04: 10AM - 7PM, 11\/05: 7AM - 8PM","votingPeriod":4,"latitude":34.242365,"longitude":-118.466117},{"locationID":10678,"name":"Shadow Oak Park Recreation Center, Community Hall","hours":"11\/02 - 11\/04: 10AM - 7PM, 11\/05: 7AM - 8PM","votingPeriod":4,"latitude":34.019561,"longitude":-117.900139},{"locationID":7304,"name":"Sharp Avenue Elementary School, Auditorium","hours":"11\/02 - 11\/04: 10AM - 7PM, 11\/05: 7AM - 8PM","votingPeriod":4,"latitude":34.252183,"longitude":-118.432681},{"locationID":14021,"name":"Sherman Oaks East Valley Adult Center, L Room","hours":"11\/02 - 11\/04: 10AM - 7PM, 11\/05: 7AM - 8PM","votingPeriod":4,"latitude":34.163105,"longitude":-118.448346},{"locationID":6103,"name":"Sherman Oaks Elementary Charter School, Auditorium","hours":"11\/02 - 11\/04: 10AM - 7PM, 11\/05: 7AM - 8PM","votingPeriod":4,"latitude":34.149689,"longitude":-118.455765},{"locationID":14223,"name":"Shiekh Compton Community Center, Community Center","hours":"11\/02 - 11\/04: 10AM - 7PM, 11\/05: 7AM - 8PM","votingPeriod":4,"latitude":33.908685,"longitude":-118.207918},{"locationID":21263,"name":"Sierra Madre Christ Church, Fellowship Room","hours":"11\/02 - 11\/04: 10AM - 7PM, 11\/05: 7AM - 8PM","votingPeriod":4,"latitude":34.165627,"longitude":-118.059654},{"locationID":2494,"name":"Sierra Park Elementary School, Auditorium","hours":"11\/02 - 11\/04: 10AM - 7PM, 11\/05: 7AM - 8PM","votingPeriod":4,"latitude":34.082667,"longitude":-118.168978},{"locationID":256,"name":"Signal Hill Public Library, Community Room","hours":"11\/02 - 11\/04: 10AM - 7PM, 11\/05: 7AM - 8PM","votingPeriod":4,"latitude":33.796817,"longitude":-118.169072},{"locationID":22330,"name":"Silver Lake Branch Library, Meeting Room","hours":"11\/02 - 11\/04: 10AM - 7PM, 11\/05: 7AM - 8PM","votingPeriod":4,"latitude":34.100395,"longitude":-118.259617},{"locationID":2150,"name":"Silverlake Independent Jewish Comm Ctr, Gymnasium","hours":"11\/02 - 11\/04: 10AM - 7PM, 11\/05: 7AM - 8PM","votingPeriod":4,"latitude":34.094764,"longitude":-118.282305},{"locationID":18775,"name":"Skirball Cultural Center, Herscher Hall","hours":"11\/02 - 11\/04: 10AM - 7PM, 11\/05: 7AM - 8PM","votingPeriod":4,"latitude":34.123977,"longitude":-118.479404},{"locationID":12828,"name":"Skytower Park, Meeting Room","hours":"11\/02 - 11\/04: 10AM - 7PM, 11\/05: 7AM - 8PM","votingPeriod":4,"latitude":34.671723,"longitude":-118.072688},{"locationID":13315,"name":"Slauson Rec and Senior Citizen Center, Senior Club Room","hours":"10\/26 - 11\/04: 10AM - 7PM, 11\/05: 7AM - 8PM","votingPeriod":11,"latitude":33.994357,"longitude":-118.247385},{"locationID":2426,"name":"Sorensen Park, Multi-Purpose Room","hours":"10\/26 - 11\/04: 10AM - 7PM, 11\/05: 7AM - 8PM","votingPeriod":11,"latitude":33.979496,"longitude":-118.061799},{"locationID":5208,"name":"Sotomayor Arts and Sciences Magnet, Multi-Purpose Room","hours":"11\/02 - 11\/04: 10AM - 7PM, 11\/05: 7AM - 8PM","votingPeriod":4,"latitude":34.102523,"longitude":-118.238896},{"locationID":6389,"name":"South Coast Botanic Garden, Frances Young Hall","hours":"10\/26 - 11\/04: 10AM - 7PM, 11\/05: 7AM - 8PM","votingPeriod":11,"latitude":33.782978,"longitude":-118.348959},{"locationID":13815,"name":"South El Monte Community Center, Gymnasium","hours":"11\/02 - 11\/04: 10AM - 7PM, 11\/05: 7AM - 8PM","votingPeriod":4,"latitude":34.046185,"longitude":-118.046473},{"locationID":14914,"name":"South Gate Middle School, Auditorium","hours":"11\/02 - 11\/04: 10AM - 7PM, 11\/05: 7AM - 8PM","votingPeriod":4,"latitude":33.952937,"longitude":-118.196857},{"locationID":13526,"name":"South Gate Park Sports Center, Conference Room","hours":"10\/26 - 11\/04: 10AM - 7PM, 11\/05: 7AM - 8PM","votingPeriod":11,"latitude":33.946197,"longitude":-118.186955},{"locationID":17147,"name":"South High School, Pavilion Gymnasium","hours":"11\/02 - 11\/04: 10AM - 7PM, 11\/05: 7AM - 8PM","votingPeriod":4,"latitude":33.812786,"longitude":-118.36525},{"locationID":11816,"name":"South LA Sports Activity Center, Multi-Purpose Room 101","hours":"11\/02 - 11\/04: 10AM - 7PM, 11\/05: 7AM - 8PM","votingPeriod":4,"latitude":33.976182,"longitude":-118.282305},{"locationID":21807,"name":"South Park Elementary School, Auditorium","hours":"11\/02 - 11\/04: 10AM - 7PM, 11\/05: 7AM - 8PM","votingPeriod":4,"latitude":33.960374,"longitude":-118.267134},{"locationID":257,"name":"South Pasadena Public Library, Community Room","hours":"11\/02 - 11\/04: 10AM - 7PM, 11\/05: 7AM - 8PM","votingPeriod":4,"latitude":34.114319,"longitude":-118.155699},{"locationID":14464,"name":"South Pointe Middle School, Multi-Purpose Room","hours":"11\/02 - 11\/04: 10AM - 7PM, 11\/05: 7AM - 8PM","votingPeriod":4,"latitude":33.991797,"longitude":-117.849749},{"locationID":5237,"name":"Southeast Rio Vista YMCA, Assembly Room","hours":"11\/02 - 11\/04: 10AM - 7PM, 11\/05: 7AM - 8PM","votingPeriod":4,"latitude":33.987649,"longitude":-118.178359},{"locationID":19476,"name":"Southern Missionary Baptist Church, Fellowship Hall","hours":"11\/02 - 11\/04: 10AM - 7PM, 11\/05: 7AM - 8PM","votingPeriod":4,"latitude":34.032381,"longitude":-118.342618},{"locationID":4118,"name":"St Cecilia Catholic Church, Parish Hall","hours":"11\/02 - 11\/04: 10AM - 7PM, 11\/05: 7AM - 8PM","votingPeriod":4,"latitude":34.006465,"longitude":-118.300012},{"locationID":21352,"name":"St George Greek Orthodox Church, Multi-Purpose Room","hours":"10\/26 - 11\/04: 10AM - 7PM, 11\/05: 7AM - 8PM","votingPeriod":11,"latitude":33.942792,"longitude":-118.130612},{"locationID":8258,"name":"St Gregory's Episcopal Church, Fellowship Hall","hours":"11\/02 - 11\/04: 10AM - 7PM, 11\/05: 7AM - 8PM","votingPeriod":4,"latitude":33.803691,"longitude":-118.110626},{"locationID":2062,"name":"St John's Episcopal Church, Vicenti Hall","hours":"11\/02 - 11\/04: 10AM - 7PM, 11\/05: 7AM - 8PM","votingPeriod":4,"latitude":34.124279,"longitude":-117.777332},{"locationID":19906,"name":"St Lucy's Priory High School, North Building","hours":"11\/02 - 11\/04: 10AM - 7PM, 11\/05: 7AM - 8PM","votingPeriod":4,"latitude":34.148442,"longitude":-117.877391},{"locationID":13040,"name":"St Martha Catholic Church, McNamara Hall","hours":"11\/02 - 11\/04: 10AM - 7PM, 11\/05: 7AM - 8PM","votingPeriod":4,"latitude":34.025307,"longitude":-117.917009},{"locationID":13106,"name":"St Mary and St Athanasius Church, Basketball Court","hours":"11\/02 - 11\/04: 10AM - 7PM, 11\/05: 7AM - 8PM","votingPeriod":4,"latitude":34.221896,"longitude":-118.513026},{"locationID":6406,"name":"St Matthew Catholic Church, Hall","hours":"11\/02 - 11\/04: 10AM - 7PM, 11\/05: 7AM - 8PM","votingPeriod":4,"latitude":33.775113,"longitude":-118.158579},{"locationID":14468,"name":"St Paul's United Methodist Church, Cappleman Hall","hours":"11\/02 - 11\/04: 10AM - 7PM, 11\/05: 7AM - 8PM","votingPeriod":4,"latitude":34.172966,"longitude":-118.527668},{"locationID":11779,"name":"Stephen Sorensen Park, Multi-Purpose Room","hours":"10\/26 - 11\/04: 10AM - 7PM, 11\/05: 7AM - 8PM","votingPeriod":11,"latitude":34.604232,"longitude":-117.82978},{"locationID":1913,"name":"Stevenson Park, Community Room","hours":"11\/02 - 11\/04: 10AM - 7PM, 11\/05: 7AM - 8PM","votingPeriod":4,"latitude":33.872682,"longitude":-118.258496},{"locationID":13894,"name":"Stevenson Ranch Library, Meeting Room","hours":"11\/02 - 11\/04: 10AM - 7PM, 11\/05: 7AM - 8PM","votingPeriod":4,"latitude":34.393187,"longitude":-118.572894},{"locationID":17742,"name":"Stonehurst Recreation Center, Preschool Building","hours":"10\/26 - 11\/04: 10AM - 7PM, 11\/05: 7AM - 8PM","votingPeriod":11,"latitude":34.24908,"longitude":-118.374992},{"locationID":14919,"name":"Strathern Elementary School, Auditorium","hours":"11\/02 - 11\/04: 10AM - 7PM, 11\/05: 7AM - 8PM","votingPeriod":4,"latitude":34.214631,"longitude":-118.40005},{"locationID":20474,"name":"Sulphur Springs Community School, G1 and G2","hours":"11\/02 - 11\/04: 10AM - 7PM, 11\/05: 7AM - 8PM","votingPeriod":4,"latitude":34.419227,"longitude":-118.426706},{"locationID":186,"name":"Sun Valley Branch Library, Meeting Room","hours":"11\/02 - 11\/04: 10AM - 7PM, 11\/05: 7AM - 8PM","votingPeriod":4,"latitude":34.214995,"longitude":-118.370887},{"locationID":15000,"name":"Sunflower Campus, Multi-Purpose Room","hours":"11\/02 - 11\/04: 10AM - 7PM, 11\/05: 7AM - 8PM","votingPeriod":4,"latitude":34.111509,"longitude":-117.846753},{"locationID":11813,"name":"Sunland Senior Citizen Center, Senior Club Room","hours":"10\/26 - 11\/04: 10AM - 7PM, 11\/05: 7AM - 8PM","votingPeriod":11,"latitude":34.261175,"longitude":-118.321423},{"locationID":10934,"name":"Sunshine Park, Community Room","hours":"10\/26 - 11\/04: 10AM - 7PM, 11\/05: 7AM - 8PM","votingPeriod":11,"latitude":34.009718,"longitude":-117.900825},{"locationID":188,"name":"Sylmar Branch Library, Meeting Room","hours":"10\/26 - 11\/04: 10AM - 7PM, 11\/05: 7AM - 8PM","votingPeriod":11,"latitude":34.307293,"longitude":-118.450472},{"locationID":14234,"name":"T Mayne Thompson Park, Gymnasium","hours":"11\/02 - 11\/04: 10AM - 7PM, 11\/05: 7AM - 8PM","votingPeriod":4,"latitude":33.905648,"longitude":-118.126014},{"locationID":22333,"name":"Tarzana Recreation Center, Gymnasium","hours":"11\/02 - 11\/04: 10AM - 7PM, 11\/05: 7AM - 8PM","votingPeriod":4,"latitude":34.174106,"longitude":-118.550608},{"locationID":12597,"name":"Tekeyan Cultural Association, Hall","hours":"10\/26 - 11\/04: 10AM - 7PM, 11\/05: 7AM - 8PM","votingPeriod":11,"latitude":34.178751,"longitude":-118.112269},{"locationID":24541,"name":"Telfair Elementary School, Library","hours":"11\/02 - 11\/04: 10AM - 7PM, 11\/05: 7AM - 8PM","votingPeriod":4,"latitude":34.269145,"longitude":-118.431936},{"locationID":10859,"name":"Temple City Unified School District, Boardroom","hours":"11\/02 - 11\/04: 10AM - 7PM, 11\/05: 7AM - 8PM","votingPeriod":4,"latitude":34.106888,"longitude":-118.057456},{"locationID":6405,"name":"Tenrikyo Church, Dining Room","hours":"11\/02 - 11\/04: 10AM - 7PM, 11\/05: 7AM - 8PM","votingPeriod":4,"latitude":34.041934,"longitude":-118.20498},{"locationID":14977,"name":"The Centre, Sycamore Room","hours":"10\/26 - 11\/04: 10AM - 7PM, 11\/05: 7AM - 8PM","votingPeriod":11,"latitude":34.410136,"longitude":-118.49979},{"locationID":22951,"name":"The Grand Annex Music Hall, Grand Annex Music Hall","hours":"11\/02 - 11\/04: 10AM - 7PM, 11\/05: 7AM - 8PM","votingPeriod":4,"latitude":33.739009,"longitude":-118.286548},{"locationID":10735,"name":"The Lakes Community Center, Community Room","hours":"11\/02 - 11\/04: 10AM - 7PM, 11\/05: 7AM - 8PM","votingPeriod":4,"latitude":34.673042,"longitude":-118.439697},{"locationID":22739,"name":"The Lighthouse Mission Church, Gymnasium","hours":"11\/02 - 11\/04: 10AM - 7PM, 11\/05: 7AM - 8PM","votingPeriod":4,"latitude":34.146737,"longitude":-118.23157},{"locationID":18932,"name":"The Live Hotel, Grand Ballroom","hours":"11\/02 - 11\/04: 10AM - 7PM, 11\/05: 7AM - 8PM","votingPeriod":4,"latitude":34.051074,"longitude":-118.277527},{"locationID":27121,"name":"The Music Center, Ahmanson Theater-First Floor Lobby","hours":"10\/26 - 11\/04: 10AM - 7PM, 11\/05: 7AM - 8PM","votingPeriod":11,"latitude":34.056848,"longitude":-118.248827},{"locationID":14935,"name":"The New Presbyterian Church, Fellowship Hall","hours":"10\/26 - 11\/04: 10AM - 7PM, 11\/05: 7AM - 8PM","votingPeriod":11,"latitude":34.089371,"longitude":-118.28666},{"locationID":25584,"name":"The Nowhere-Pico Treasure, Pico Treasure","hours":"10\/26 - 11\/04: 10AM - 7PM, 11\/05: 7AM - 8PM","votingPeriod":11,"latitude":34.052817,"longitude":-118.374958},{"locationID":13031,"name":"The Park, Gymnasium","hours":"11\/02 - 11\/04: 10AM - 7PM, 11\/05: 7AM - 8PM","votingPeriod":4,"latitude":33.957695,"longitude":-117.958674},{"locationID":14232,"name":"The Valley Vineyard Christian Church, Fellowship Hall","hours":"11\/02 - 11\/04: 10AM - 7PM, 11\/05: 7AM - 8PM","votingPeriod":4,"latitude":34.191106,"longitude":-118.535792},{"locationID":22359,"name":"The Way Out Ministries, Multi-Purpose Room","hours":"11\/02 - 11\/04: 10AM - 7PM, 11\/05: 7AM - 8PM","votingPeriod":4,"latitude":33.824746,"longitude":-118.072195},{"locationID":20263,"name":"Thomas Jefferson Elementary School, Multi-Purpose Room","hours":"11\/02 - 11\/04: 10AM - 7PM, 11\/05: 7AM - 8PM","votingPeriod":4,"latitude":33.869919,"longitude":-118.119969},{"locationID":21784,"name":"Toluca Lake Elem School-Strohm Entrance, Library-Entrance on Strohm Ave","hours":"11\/02 - 11\/04: 10AM - 7PM, 11\/05: 7AM - 8PM","votingPeriod":4,"latitude":34.159921,"longitude":-118.3598},{"locationID":150,"name":"Topanga Library, Meeting Room","hours":"11\/02 - 11\/04: 10AM - 7PM, 11\/05: 7AM - 8PM","votingPeriod":4,"latitude":34.090127,"longitude":-118.603636},{"locationID":10861,"name":"Torch Middle School, Watanabe Center","hours":"11\/02 - 11\/04: 10AM - 7PM, 11\/05: 7AM - 8PM","votingPeriod":4,"latitude":34.057243,"longitude":-117.984133},{"locationID":4629,"name":"Town Center Hall, Social Hall","hours":"11\/02 - 11\/04: 10AM - 7PM, 11\/05: 7AM - 8PM","votingPeriod":4,"latitude":33.945053,"longitude":-118.083441},{"locationID":11790,"name":"Tree of Life Baptist Church, Fellowship Hall","hours":"10\/26 - 11\/04: 10AM - 7PM, 11\/05: 7AM - 8PM","votingPeriod":11,"latitude":33.948058,"longitude":-118.240576},{"locationID":1568,"name":"TreePeople, Conference Center","hours":"10\/26 - 11\/04: 10AM - 7PM, 11\/05: 7AM - 8PM","votingPeriod":11,"latitude":34.129749,"longitude":-118.405056},{"locationID":27055,"name":"Tri-Community Adult School-Pioneer, Library","hours":"11\/02 - 11\/04: 10AM - 7PM, 11\/05: 7AM - 8PM","votingPeriod":4,"latitude":34.087365,"longitude":-117.880652},{"locationID":7385,"name":"Tri-Community Adult School-Trade-Tech, Cafeteria","hours":"11\/02 - 11\/04: 10AM - 7PM, 11\/05: 7AM - 8PM","votingPeriod":4,"latitude":34.104298,"longitude":-117.887367},{"locationID":6142,"name":"Trinity Central Lutheran Church, Parish Hall","hours":"10\/26 - 11\/04: 10AM - 7PM, 11\/05: 7AM - 8PM","votingPeriod":11,"latitude":34.053193,"longitude":-118.313397},{"locationID":4710,"name":"True Friendship Missionary Baptist Church, Fellowship Hall","hours":"11\/02 - 11\/04: 10AM - 7PM, 11\/05: 7AM - 8PM","votingPeriod":4,"latitude":33.966787,"longitude":-118.318046},{"locationID":13198,"name":"UCLA Ackerman Union, 2nd Floor Bruin Reception Room","hours":"11\/02 - 11\/04: 10AM - 7PM, 11\/05: 7AM - 8PM","votingPeriod":4,"latitude":34.070268,"longitude":-118.444334},{"locationID":5394,"name":"UCLA De Neve Plaza, Rooms A and B","hours":"10\/26 - 11\/04: 10AM - 7PM, 11\/05: 7AM - 8PM","votingPeriod":11,"latitude":34.069531,"longitude":-118.44925},{"locationID":14924,"name":"UCLA West Valley Medical Center, Cafeteria","hours":"11\/02 - 11\/04: 10AM - 7PM, 11\/05: 7AM - 8PM","votingPeriod":4,"latitude":34.20296,"longitude":-118.629051},{"locationID":15038,"name":"Union Church LA, Kids Building","hours":"10\/26 - 11\/04: 10AM - 7PM, 11\/05: 7AM - 8PM","votingPeriod":11,"latitude":34.061358,"longitude":-118.108534},{"locationID":2548,"name":"United With Hope, Social Hall","hours":"10\/26 - 11\/04: 10AM - 7PM, 11\/05: 7AM - 8PM","votingPeriod":11,"latitude":33.858508,"longitude":-118.185677},{"locationID":21492,"name":"University of La Verne, Abraham Campus Ctr Ballrooms 3rd Floor","hours":"11\/02 - 11\/04: 10AM - 7PM, 11\/05: 7AM - 8PM","votingPeriod":4,"latitude":34.099747,"longitude":-117.772214},{"locationID":17611,"name":"Unsworth Elementary School, Cafeteria","hours":"11\/02 - 11\/04: 10AM - 7PM, 11\/05: 7AM - 8PM","votingPeriod":4,"latitude":33.956431,"longitude":-118.106525},{"locationID":24456,"name":"USC Village, UVN 1200","hours":"11\/02 - 11\/04: 10AM - 7PM, 11\/05: 7AM - 8PM","votingPeriod":4,"latitude":34.024452,"longitude":-118.284075},{"locationID":9623,"name":"Valencia Branch Library, Multi-Purpose Room","hours":"11\/02 - 11\/04: 10AM - 7PM, 11\/05: 7AM - 8PM","votingPeriod":4,"latitude":34.415496,"longitude":-118.550797},{"locationID":13701,"name":"Valentine Elementary School, Little Theater","hours":"11\/02 - 11\/04: 10AM - 7PM, 11\/05: 7AM - 8PM","votingPeriod":4,"latitude":34.117499,"longitude":-118.116354},{"locationID":14237,"name":"Valinda School of Academics, Multi-Purpose Room-Cafeteria","hours":"11\/02 - 11\/04: 10AM - 7PM, 11\/05: 7AM - 8PM","votingPeriod":4,"latitude":34.037752,"longitude":-117.929554},{"locationID":20892,"name":"Valley Korean United Methodist Church, Ed Bldg Lobby and Rooms 100 and 101","hours":"10\/26 - 11\/04: 10AM - 7PM, 11\/05: 7AM - 8PM","votingPeriod":11,"latitude":34.259715,"longitude":-118.501941},{"locationID":21529,"name":"Valley Outreach Synagogue, Annex","hours":"11\/02 - 11\/04: 10AM - 7PM, 11\/05: 7AM - 8PM","votingPeriod":4,"latitude":34.140487,"longitude":-118.704356},{"locationID":5778,"name":"Valleydale Park, Auditorium","hours":"10\/26 - 11\/04: 10AM - 7PM, 11\/05: 7AM - 8PM","votingPeriod":11,"latitude":34.112443,"longitude":-117.916842},{"locationID":19488,"name":"Van Nuys Masonic Center, Ballroom","hours":"11\/02 - 11\/04: 10AM - 7PM, 11\/05: 7AM - 8PM","votingPeriod":4,"latitude":34.200857,"longitude":-118.454902},{"locationID":25513,"name":"Vela Venue, Smaller Room","hours":"11\/02 - 11\/04: 10AM - 7PM, 11\/05: 7AM - 8PM","votingPeriod":4,"latitude":33.988838,"longitude":-118.307945},{"locationID":22364,"name":"Veteran's Memorial Building, Auditorium","hours":"11\/02 - 11\/04: 10AM - 7PM, 11\/05: 7AM - 8PM","votingPeriod":4,"latitude":33.971396,"longitude":-118.347837},{"locationID":19742,"name":"Veterans Park, Social Hall","hours":"10\/26 - 11\/04: 10AM - 7PM, 11\/05: 7AM - 8PM","votingPeriod":11,"latitude":33.808422,"longitude":-118.192537},{"locationID":8561,"name":"Veterans Park, Gymnasium","hours":"10\/26 - 11\/04: 10AM - 7PM, 11\/05: 7AM - 8PM","votingPeriod":11,"latitude":33.823282,"longitude":-118.280952},{"locationID":10465,"name":"Victoria Community Regional Park, Multi-Purpose Room","hours":"10\/26 - 11\/04: 10AM - 7PM, 11\/05: 7AM - 8PM","votingPeriod":11,"latitude":33.856785,"longitude":-118.269378},{"locationID":3829,"name":"Victory Park Recreation Center, Gymnasium","hours":"11\/02 - 11\/04: 10AM - 7PM, 11\/05: 7AM - 8PM","votingPeriod":4,"latitude":34.160081,"longitude":-118.097412},{"locationID":13079,"name":"Vietnamese Association of SFV, Main Room","hours":"10\/26 - 11\/04: 10AM - 7PM, 11\/05: 7AM - 8PM","votingPeriod":11,"latitude":34.202324,"longitude":-118.562831},{"locationID":240,"name":"Villa Park Community Center, Auditorium","hours":"11\/02 - 11\/04: 10AM - 7PM, 11\/05: 7AM - 8PM","votingPeriod":4,"latitude":34.154555,"longitude":-118.142707},{"locationID":10893,"name":"Vincent Bell Memorial Park, Community Room","hours":"11\/02 - 11\/04: 10AM - 7PM, 11\/05: 7AM - 8PM","votingPeriod":4,"latitude":33.897507,"longitude":-118.302049},{"locationID":5878,"name":"Vintage Magnet Elementary School, Auditorium","hours":"11\/02 - 11\/04: 10AM - 7PM, 11\/05: 7AM - 8PM","votingPeriod":4,"latitude":34.252503,"longitude":-118.477984},{"locationID":7604,"name":"Virgil Middle School, Auditorium","hours":"11\/02 - 11\/04: 10AM - 7PM, 11\/05: 7AM - 8PM","votingPeriod":4,"latitude":34.074079,"longitude":-118.291118},{"locationID":21248,"name":"Vista Middle School, Library","hours":"11\/02 - 11\/04: 10AM - 7PM, 11\/05: 7AM - 8PM","votingPeriod":4,"latitude":34.221147,"longitude":-118.460691},{"locationID":6803,"name":"Walnut Park Elementary School, Multi-Purpose Room","hours":"11\/02 - 11\/04: 10AM - 7PM, 11\/05: 7AM - 8PM","votingPeriod":4,"latitude":33.967163,"longitude":-118.22424},{"locationID":5994,"name":"Walter Reed Middle School, Auditorium Foyer","hours":"11\/02 - 11\/04: 10AM - 7PM, 11\/05: 7AM - 8PM","votingPeriod":4,"latitude":34.152732,"longitude":-118.386068},{"locationID":13528,"name":"Walteria Park, Meeting Room","hours":"10\/26 - 11\/04: 10AM - 7PM, 11\/05: 7AM - 8PM","votingPeriod":11,"latitude":33.804651,"longitude":-118.353644},{"locationID":12610,"name":"Wardlow Park Community Center, Social Hall","hours":"11\/02 - 11\/04: 10AM - 7PM, 11\/05: 7AM - 8PM","votingPeriod":4,"latitude":33.819687,"longitude":-118.128272},{"locationID":21755,"name":"Washington Irving Middle School, Auditorium Foyer","hours":"11\/02 - 11\/04: 10AM - 7PM, 11\/05: 7AM - 8PM","votingPeriod":4,"latitude":34.116642,"longitude":-118.240975},{"locationID":17109,"name":"Washington Preschool, Multi-Purpose Room","hours":"11\/02 - 11\/04: 10AM - 7PM, 11\/05: 7AM - 8PM","votingPeriod":4,"latitude":34.001833,"longitude":-118.479901},{"locationID":541,"name":"Watts Empowerment Center, Gymnasium","hours":"11\/02 - 11\/04: 10AM - 7PM, 11\/05: 7AM - 8PM","votingPeriod":4,"latitude":33.931324,"longitude":-118.232284},{"locationID":20557,"name":"Webster Elementary School, Auditorium","hours":"11\/02 - 11\/04: 10AM - 7PM, 11\/05: 7AM - 8PM","votingPeriod":4,"latitude":34.169491,"longitude":-118.106669},{"locationID":20560,"name":"Weingart YMCA Wellness and Aquatic Ctr, Gymnasium","hours":"11\/02 - 11\/04: 10AM - 7PM, 11\/05: 7AM - 8PM","votingPeriod":4,"latitude":33.946017,"longitude":-118.290913},{"locationID":11728,"name":"West Angeles Church of God in Christ, South Lobby","hours":"11\/02 - 11\/04: 10AM - 7PM, 11\/05: 7AM - 8PM","votingPeriod":4,"latitude":34.023411,"longitude":-118.334177},{"locationID":340,"name":"West Covina City Hall, Community Room","hours":"11\/02 - 11\/04: 10AM - 7PM, 11\/05: 7AM - 8PM","votingPeriod":4,"latitude":34.071396,"longitude":-117.938928},{"locationID":20975,"name":"West Hollywood Park, La Cienega and San Vicente Rooms","hours":"11\/02 - 11\/04: 10AM - 7PM, 11\/05: 7AM - 8PM","votingPeriod":4,"latitude":34.081444,"longitude":-118.385158},{"locationID":20961,"name":"West Los Angeles College, Fine Arts Gallery","hours":"11\/02 - 11\/04: 10AM - 7PM, 11\/05: 7AM - 8PM","votingPeriod":4,"latitude":34.004426,"longitude":-118.387658},{"locationID":14581,"name":"Westchester Enriched Sciences Magnets, Multi-Purpose Room","hours":"11\/02 - 11\/04: 10AM - 7PM, 11\/05: 7AM - 8PM","votingPeriod":4,"latitude":33.95951,"longitude":-118.427195},{"locationID":9127,"name":"Westchester Family YMCA  Annex, Meeting Room Hall","hours":"10\/26 - 11\/04: 10AM - 7PM, 11\/05: 7AM - 8PM","votingPeriod":11,"latitude":33.966444,"longitude":-118.398007},{"locationID":9461,"name":"Westfield Century City, Community Room","hours":"11\/02 - 11\/04: 10AM - 7PM, 11\/05: 7AM - 8PM","votingPeriod":4,"latitude":34.058752,"longitude":-118.419322},{"locationID":341,"name":"Westlake Village City Hall, Community Room","hours":"10\/26 - 11\/04: 10AM - 7PM, 11\/05: 7AM - 8PM","votingPeriod":11,"latitude":34.144528,"longitude":-118.798832},{"locationID":2229,"name":"Westminster Avenue Elementary School, Auditorium","hours":"11\/02 - 11\/04: 10AM - 7PM, 11\/05: 7AM - 8PM","votingPeriod":4,"latitude":33.991816,"longitude":-118.471912},{"locationID":21510,"name":"Westminster Presbyterian Church, Fellowship Center","hours":"11\/02 - 11\/04: 10AM - 7PM, 11\/05: 7AM - 8PM","votingPeriod":4,"latitude":34.14596,"longitude":-118.820983},{"locationID":14649,"name":"Whitney High School, Gymnasium","hours":"11\/02 - 11\/04: 10AM - 7PM, 11\/05: 7AM - 8PM","votingPeriod":4,"latitude":33.877342,"longitude":-118.053166},{"locationID":20698,"name":"Whittier Community Center, Rooms 1 and 2","hours":"11\/02 - 11\/04: 10AM - 7PM, 11\/05: 7AM - 8PM","votingPeriod":4,"latitude":33.972766,"longitude":-118.034724},{"locationID":14503,"name":"Wilbur Charter for Enriched Academics, Auditorium","hours":"11\/02 - 11\/04: 10AM - 7PM, 11\/05: 7AM - 8PM","votingPeriod":4,"latitude":34.16513,"longitude":-118.544387},{"locationID":174,"name":"Will and Ariel Durant Library, Community Room","hours":"11\/02 - 11\/04: 10AM - 7PM, 11\/05: 7AM - 8PM","votingPeriod":4,"latitude":34.097603,"longitude":-118.345588},{"locationID":1751,"name":"Willow Adult Education Center, Cafeteria","hours":"10\/26 - 11\/04: 10AM - 7PM, 11\/05: 7AM - 8PM","votingPeriod":11,"latitude":34.044524,"longitude":-117.980218},{"locationID":12691,"name":"Wilmington VFW Post 2967, Assembly Hall","hours":"10\/26 - 11\/04: 10AM - 7PM, 11\/05: 7AM - 8PM","votingPeriod":11,"latitude":33.778935,"longitude":-118.276621},{"locationID":20771,"name":"Wilson Park, Ballroom","hours":"11\/02 - 11\/04: 10AM - 7PM, 11\/05: 7AM - 8PM","votingPeriod":4,"latitude":33.896841,"longitude":-118.219666},{"locationID":21015,"name":"Wilsona Elementary School, Rooms S11 and S13","hours":"11\/02 - 11\/04: 10AM - 7PM, 11\/05: 7AM - 8PM","votingPeriod":4,"latitude":34.639405,"longitude":-117.827589},{"locationID":1909,"name":"Winnetka Avenue Elementary School, Auditorium","hours":"11\/02 - 11\/04: 10AM - 7PM, 11\/05: 7AM - 8PM","votingPeriod":4,"latitude":34.219481,"longitude":-118.570826},{"locationID":12317,"name":"Woodland Hills Academy, Multi-Purpose Room","hours":"11\/02 - 11\/04: 10AM - 7PM, 11\/05: 7AM - 8PM","votingPeriod":4,"latitude":34.170207,"longitude":-118.586826},{"locationID":12428,"name":"Woodland Hills Presbyterian Church, Fellowship Hall","hours":"10\/26 - 11\/04: 10AM - 7PM, 11\/05: 7AM - 8PM","votingPeriod":11,"latitude":34.175232,"longitude":-118.643446},{"locationID":21016,"name":"Woodland Hills United Methodist Church, Education Building Rooms 1 and 2","hours":"11\/02 - 11\/04: 10AM - 7PM, 11\/05: 7AM - 8PM","votingPeriod":4,"latitude":34.173133,"longitude":-118.613493},{"locationID":20807,"name":"Workman High School, DEN","hours":"11\/02 - 11\/04: 10AM - 7PM, 11\/05: 7AM - 8PM","votingPeriod":4,"latitude":34.029209,"longitude":-117.937262},{"locationID":19837,"name":"YES Academy, Auditorium","hours":"11\/02 - 11\/04: 10AM - 7PM, 11\/05: 7AM - 8PM","votingPeriod":4,"latitude":33.980327,"longitude":-118.328111},{"locationID":470,"name":"YMCA West San Gabriel Valley, Multi-Purpose Room","hours":"11\/02 - 11\/04: 10AM - 7PM, 11\/05: 7AM - 8PM","votingPeriod":4,"latitude":34.090631,"longitude":-118.118734},{"locationID":20849,"name":"Zion Hill Baptist Church, Gymnasium","hours":"10\/26 - 11\/04: 10AM - 7PM, 11\/05: 7AM - 8PM","votingPeriod":11,"latitude":33.967931,"longitude":-118.328424}]