[{"locationID":16400,"name":"A C Bilbrew Library","hours":"24 - Hour","latitude":33.916208,"longitude":-118.272005},{"locationID":16313,"name":"Acton Park","hours":"24 - Hour","latitude":34.472052,"longitude":-118.198579},{"locationID":16358,"name":"Adventure Park","hours":"6:30 AM - 9:00 PM","latitude":33.942315,"longitude":-118.037057},{"locationID":16209,"name":"Agoura Hills Civic Center - City Hall","hours":"24 - Hour","latitude":34.144291,"longitude":-118.776063},{"locationID":16054,"name":"Ahmanson Senior Citizen Center - Expo Center","hours":"Sunrise - Sunset","latitude":34.011686,"longitude":-118.289954},{"locationID":16255,"name":"Albert Piantanida Intergenerational Center","hours":"Hours of Operation","latitude":34.244094,"longitude":-118.450069},{"locationID":16274,"name":"Alexander Hughes Community Center","hours":"24 - Hour","latitude":34.115367,"longitude":-117.733425},{"locationID":16348,"name":"Algin Sutton Recreation Center","hours":"Sunrise - Sunset","latitude":33.956902,"longitude":-118.286846},{"locationID":16335,"name":"Alhambra Civic Center Library","hours":"24 - Hour","latitude":34.067002,"longitude":-118.145776},{"locationID":16197,"name":"Allendale Branch Library","hours":"24 - Hour","latitude":34.126426,"longitude":-118.145294},{"locationID":16002,"name":"Alma Reaves Woods-Watts Branch Library","hours":"24 - Hour","latitude":33.943831,"longitude":-118.246611},{"locationID":16148,"name":"Alondra Library","hours":"24 - Hour","latitude":33.887849,"longitude":-118.078258},{"locationID":26878,"name":"Anderson Park Senior Center","hours":"24 - Hour","latitude":33.882839,"longitude":-118.370318},{"locationID":16256,"name":"Andres and Maria Cardenas Recreation Center","hours":"Sunrise - Sunset","latitude":34.215149,"longitude":-118.45466},{"locationID":16063,"name":"Angeles Mesa Branch Library","hours":"24 - Hour","latitude":33.994943,"longitude":-118.322691},{"locationID":16158,"name":"Angelo M Iacoboni Library","hours":"24 - Hour","latitude":33.849074,"longitude":-118.133251},{"locationID":16387,"name":"Arcadia City Hall","hours":"24 - Hour","latitude":34.137447,"longitude":-118.038808},{"locationID":16061,"name":"Arroyo Seco Regional Library","hours":"24 - Hour","latitude":34.11393,"longitude":-118.18606},{"locationID":16338,"name":"Artesia Library","hours":"24 - Hour","latitude":33.860473,"longitude":-118.077013},{"locationID":16004,"name":"Ascot Branch Library","hours":"24 - Hour","latitude":33.974575,"longitude":-118.274615},{"locationID":16057,"name":"Atwater Village Branch Library","hours":"24 - Hour","latitude":34.12005,"longitude":-118.258981},{"locationID":16155,"name":"Avalon Library","hours":"24 - Hour","latitude":33.343146,"longitude":-118.326872},{"locationID":16286,"name":"Avocado Heights Park","hours":"24 - Hour","latitude":34.035549,"longitude":-117.988242},{"locationID":16272,"name":"Azusa Library","hours":"24 - Hour","latitude":34.134466,"longitude":-117.904835},{"locationID":16349,"name":"Balboa Sports Center","hours":"Sunrise - Sunset","latitude":34.173863,"longitude":-118.5013},{"locationID":16021,"name":"Baldwin Hills Branch Library","hours":"24 - Hour","latitude":34.028401,"longitude":-118.352644},{"locationID":16019,"name":"Baldwin Hills Recreation Center","hours":"Sunrise - Sunset","latitude":34.023368,"longitude":-118.364377},{"locationID":16334,"name":"Baldwin Park City Hall","hours":"24 - Hour","latitude":34.085225,"longitude":-117.959174},{"locationID":16609,"name":"Barrington Recreation Center","hours":"Sunrise - Sunset","latitude":34.061412,"longitude":-118.468615},{"locationID":16317,"name":"Bee Canyon Park","hours":"Sunrise - Sunset","latitude":34.307452,"longitude":-118.510556},{"locationID":16094,"name":"Bell City Hall","hours":"24 - Hour","latitude":33.978962,"longitude":-118.18853},{"locationID":16095,"name":"Bell Gardens Library","hours":"24 - Hour","latitude":33.966778,"longitude":-118.150628},{"locationID":16343,"name":"Bellflower City Hall","hours":"24 - Hour","latitude":33.883258,"longitude":-118.122117},{"locationID":16044,"name":"Benjamin Franklin Branch Library","hours":"24 - Hour","latitude":34.044246,"longitude":-118.212478},{"locationID":16240,"name":"Bethel Christian Reformed Church","hours":"24 - Hour","latitude":34.232413,"longitude":-118.364567},{"locationID":16383,"name":"Beverly Hills City Hall - Near Kelly's Coffee and Fudge Factory","hours":"24 - Hour","latitude":34.07269,"longitude":-118.399397},{"locationID":16174,"name":"Bixby Park Community Center","hours":"24 - Hour","latitude":33.765566,"longitude":-118.16739},{"locationID":16110,"name":"Bodger Park","hours":"6:30 AM - 9:00 PM","latitude":33.896463,"longitude":-118.334831},{"locationID":16236,"name":"Bouquet Canyon Park","hours":"24 - Hour","latitude":34.452571,"longitude":-118.504699},{"locationID":16234,"name":"Brand Park","hours":"Sunrise - Sunset","latitude":34.272009,"longitude":-118.460566},{"locationID":16221,"name":"Branford Recreation Center","hours":"24 - Hour","latitude":34.23301,"longitude":-118.423876},{"locationID":16005,"name":"Bresee Foundation","hours":"24 - Hour","latitude":34.070427,"longitude":-118.290478},{"locationID":16184,"name":"Bret Harte Neighborhood Library","hours":"24 - Hour","latitude":33.804513,"longitude":-118.214103},{"locationID":16466,"name":"Buena Vista Branch Library","hours":"24 - Hour","latitude":34.163674,"longitude":-118.330291},{"locationID":16263,"name":"Burbank City Hall","hours":"24 - Hour","latitude":34.182155,"longitude":-118.308301},{"locationID":16181,"name":"Burnett Neighborhood Library","hours":"24 - Hour","latitude":33.797031,"longitude":-118.185795},{"locationID":24361,"name":"CA State Polytechnic University Pomona - Student Services Building","hours":"24 - Hour","latitude":34.058595,"longitude":-117.818953},{"locationID":16040,"name":"Cahuenga Branch Library","hours":"24 - Hour","latitude":34.090981,"longitude":-118.288916},{"locationID":24362,"name":"Cal State University Dominguez Hills - Lot 3","hours":"24 - Hour","latitude":33.86567,"longitude":-118.259447},{"locationID":24363,"name":"Cal State University Long Beach","hours":"24 - Hour","latitude":33.783177,"longitude":-118.119529},{"locationID":24364,"name":"Cal State University Los Angeles - Lot 4","hours":"24 - Hour","latitude":34.066209,"longitude":-118.168774},{"locationID":24360,"name":"Cal State University Northridge - Lot 5\/Redwood Hall","hours":"24 - Hour","latitude":34.242271,"longitude":-118.525277},{"locationID":16210,"name":"Calabasas City Hall - In Front of City Hall","hours":"24 - Hour","latitude":34.152893,"longitude":-118.647203},{"locationID":16849,"name":"Cameron Park Community Center","hours":"24 - Hour","latitude":34.061567,"longitude":-117.91795},{"locationID":16211,"name":"Canoga Park Branch Library","hours":"24 - Hour","latitude":34.201237,"longitude":-118.590317},{"locationID":16238,"name":"Canyon Country Jo Anne Darcy Library","hours":"24 - Hour","latitude":34.416333,"longitude":-118.459291},{"locationID":16166,"name":"Carson Library","hours":"24 - Hour","latitude":33.83218,"longitude":-118.27657},{"locationID":16251,"name":"Castaic Regional Sports Complex","hours":"24 - Hour","latitude":34.485958,"longitude":-118.61516},{"locationID":16320,"name":"Centro Maravilla Service Center","hours":"24 - Hour","latitude":34.040482,"longitude":-118.164368},{"locationID":16153,"name":"Cerritos Civic Center Plaza","hours":"24 - Hour","latitude":33.866885,"longitude":-118.065662},{"locationID":16149,"name":"Cerritos College - Alondra Blvd Drop-Off Zone","hours":"24 - Hour","latitude":33.887195,"longitude":-118.097385},{"locationID":16154,"name":"Cerritos Park East","hours":"24 - Hour","latitude":33.880068,"longitude":-118.05076},{"locationID":16125,"name":"Cesar Chavez Park","hours":"24 - Hour","latitude":33.952802,"longitude":-118.220963},{"locationID":16337,"name":"Charles S Farnsworth Park - William D Davies Memorial Bldg","hours":"24 - Hour","latitude":34.201118,"longitude":-118.131126},{"locationID":16187,"name":"Charles White Park","hours":"24 - Hour","latitude":34.188727,"longitude":-118.15326},{"locationID":16276,"name":"Charter Oak Park","hours":"24 - Hour","latitude":34.09968,"longitude":-117.858211},{"locationID":16216,"name":"Chatsworth Branch Library","hours":"24 - Hour","latitude":34.257134,"longitude":-118.592524},{"locationID":16215,"name":"Chatsworth Community Center","hours":"24 - Hour","latitude":34.271705,"longitude":-118.58963},{"locationID":24602,"name":"Chet Holifield Library","hours":"24 - Hour","latitude":33.993364,"longitude":-118.120296},{"locationID":16015,"name":"Chinatown Branch Library","hours":"24 - Hour","latitude":34.060802,"longitude":-118.240822},{"locationID":27050,"name":"City of Commerce Teen Center","hours":"Hours of Operation","latitude":34.008686,"longitude":-118.162536},{"locationID":16082,"name":"City Terrace Library","hours":"24 - Hour","latitude":34.056131,"longitude":-118.1779},{"locationID":16378,"name":"Claremont Helen Renwick Library","hours":"24 - Hour","latitude":34.096097,"longitude":-117.716153},{"locationID":16058,"name":"Commerce City Hall","hours":"24 - Hour","latitude":34.001101,"longitude":-118.155577},{"locationID":16401,"name":"Compton Library","hours":"24 - Hour","latitude":33.895813,"longitude":-118.225581},{"locationID":16393,"name":"Cortez Park Community and Senior Center","hours":"24 - Hour","latitude":34.064822,"longitude":-117.891656},{"locationID":16285,"name":"Countrywood Park","hours":"24 - Hour","latitude":33.988904,"longitude":-117.941853},{"locationID":16275,"name":"Covina City Hall","hours":"24 - Hour","latitude":34.087527,"longitude":-117.889235},{"locationID":16315,"name":"Creekside Park","hours":"24 - Hour","latitude":34.027235,"longitude":-117.878205},{"locationID":16135,"name":"Crenshaw Imperial Branch Library","hours":"24 - Hour","latitude":33.933822,"longitude":-118.32697},{"locationID":24748,"name":"Crossroads Business Park","hours":"24 - Hour","latitude":34.030647,"longitude":-118.010298},{"locationID":16282,"name":"Crowther Teen and Family Center","hours":"24 - Hour","latitude":34.118275,"longitude":-117.866824},{"locationID":16096,"name":"Cudahy Park","hours":"24 - Hour","latitude":33.959314,"longitude":-118.174318},{"locationID":16099,"name":"Culver City Julian Dixon Library","hours":"24 - Hour","latitude":34.007816,"longitude":-118.397123},{"locationID":16088,"name":"Culver West Alexander Park","hours":"24 - Hour","latitude":33.99369,"longitude":-118.434215},{"locationID":16160,"name":"CVS - City Sidewalk","hours":"24 - Hour","latitude":33.858175,"longitude":-118.106392},{"locationID":16087,"name":"Cypress Park Branch Library","hours":"24 - Hour","latitude":34.094687,"longitude":-118.227368},{"locationID":16182,"name":"Dana Neighborhood Library","hours":"24 - Hour","latitude":33.823978,"longitude":-118.184852},{"locationID":16846,"name":"Darby Park","hours":"24 - Hour","latitude":33.953276,"longitude":-118.32987},{"locationID":26884,"name":"David M. Gonzales Recreation Center","hours":"24 - Hour","latitude":34.269192,"longitude":-118.413101},{"locationID":26882,"name":"De Forest Park","hours":"24 - Hour","latitude":33.866793,"longitude":-118.192745},{"locationID":16369,"name":"Denker Recreation Center","hours":"24 - Hour","latitude":34.023632,"longitude":-118.304397},{"locationID":16856,"name":"Department of Public Social Services-Civic Center","hours":"24 - Hour","latitude":34.044164,"longitude":-118.235947},{"locationID":16304,"name":"Department of Public Social Services-Lancaster 67","hours":"24 - Hour","latitude":34.666876,"longitude":-118.124884},{"locationID":16085,"name":"Department of Public Social Services-Rancho Park 60","hours":"24 - Hour","latitude":34.036554,"longitude":-118.435449},{"locationID":16355,"name":"Dexter Park","hours":"24 - Hour","latitude":34.295321,"longitude":-118.374614},{"locationID":16290,"name":"Diamond Bar Library","hours":"24 - Hour","latitude":33.998968,"longitude":-117.830487},{"locationID":16311,"name":"Domenic Massari Park","hours":"6 AM - 10 PM","latitude":34.570874,"longitude":-118.030994},{"locationID":16857,"name":"Dominguez Park","hours":"24 - Hour","latitude":33.856475,"longitude":-118.378306},{"locationID":16073,"name":"Donald Bruce Kaufman-Brentwood Branch Library","hours":"24 - Hour","latitude":34.052837,"longitude":-118.468914},{"locationID":16102,"name":"Downey City Hall","hours":"24 - Hour","latitude":33.940558,"longitude":-118.129054},{"locationID":16169,"name":"Dr Martin Luther King Jr Library","hours":"24 - Hour","latitude":33.867785,"longitude":-118.265668},{"locationID":16189,"name":"Duarte Library","hours":"24 - Hour","latitude":34.13813,"longitude":-117.97807},{"locationID":16208,"name":"Dunsmore Park","hours":"24 - Hour","latitude":34.239109,"longitude":-118.257298},{"locationID":16059,"name":"Eagle Rock Branch Library","hours":"24 - Hour","latitude":34.137736,"longitude":-118.213353},{"locationID":16850,"name":"Eagle Rock Recreation Center","hours":"Sunrise - Sunset","latitude":34.143144,"longitude":-118.189003},{"locationID":16407,"name":"East Los Angeles Library","hours":"24 - Hour","latitude":34.034302,"longitude":-118.159672},{"locationID":16083,"name":"East Los Angeles Services Center","hours":"24 - Hour","latitude":34.037254,"longitude":-118.178751},{"locationID":16098,"name":"East Rancho Dominguez Library","hours":"24 - Hour","latitude":33.894121,"longitude":-118.193424},{"locationID":16035,"name":"Echo Park Branch Library","hours":"24 - Hour","latitude":34.067257,"longitude":-118.256995},{"locationID":16036,"name":"Edendale Branch Library","hours":"24 - Hour","latitude":34.077903,"longitude":-118.262292},{"locationID":16134,"name":"Edward Vincent Jr Park - Veterans Memorial Bldg","hours":"24 - Hour","latitude":33.971644,"longitude":-118.347885},{"locationID":24604,"name":"El Cariso Park","hours":"24 - Hour","latitude":34.317605,"longitude":-118.418701},{"locationID":16186,"name":"El Dorado Park West Community Center","hours":"24 - Hour","latitude":33.807189,"longitude":-118.09828},{"locationID":16279,"name":"El Monte Library","hours":"24 - Hour","latitude":34.066933,"longitude":-118.035701},{"locationID":16278,"name":"El Monte Transit Station","hours":"24 - hour","latitude":34.072305,"longitude":-118.043754},{"locationID":16105,"name":"El Segundo City Hall","hours":"24 - Hour","latitude":33.920756,"longitude":-118.415807},{"locationID":16043,"name":"El Sereno Branch Library","hours":"24 - Hour","latitude":34.089282,"longitude":-118.168677},{"locationID":16217,"name":"Encino Park","hours":"24 - Hour","latitude":34.159743,"longitude":-118.502435},{"locationID":16245,"name":"Encino-Tarzana Branch Library","hours":"24 - Hour","latitude":34.166701,"longitude":-118.529693},{"locationID":26879,"name":"Eucalyptus Park","hours":"24 - Hour","latitude":33.922353,"longitude":-118.361212},{"locationID":16307,"name":"Everett Martin Park","hours":"24 - Hour","latitude":34.527762,"longitude":-117.966567},{"locationID":16081,"name":"Exposition Park-Dr Mary McLeod Bethune Regional Library","hours":"24 - Hour","latitude":34.014528,"longitude":-118.307944},{"locationID":16051,"name":"Fairfax Branch Library","hours":"24 - Hour","latitude":34.071914,"longitude":-118.353265},{"locationID":16076,"name":"Felipe de Neve Branch Library","hours":"24 - Hour","latitude":34.063528,"longitude":-118.284053},{"locationID":16351,"name":"Fernangeles Recreation Center","hours":"24 - Hour","latitude":34.229242,"longitude":-118.400932},{"locationID":16167,"name":"Foisia Park - Formerly Known as Scott Park","hours":"24 - Hour","latitude":33.813025,"longitude":-118.270886},{"locationID":16100,"name":"Fox Hills Parkette","hours":"24 - Hour","latitude":33.987324,"longitude":-118.382241},{"locationID":16039,"name":"Frances Howard Goldwyn-Hollywood Regional Branch Library","hours":"24 - Hour","latitude":34.10032,"longitude":-118.328181},{"locationID":16176,"name":"Freeman Community Center","hours":"24 - Hour","latitude":33.781948,"longitude":-118.155784},{"locationID":16322,"name":"Ganesha Park","hours":"24 - Hour","latitude":34.075897,"longitude":-117.759927},{"locationID":16145,"name":"Gardenhill Park","hours":"24 - Hour","latitude":33.910436,"longitude":-118.023927},{"locationID":16060,"name":"Garvanza Park","hours":"24 - Hour","latitude":34.120033,"longitude":-118.179687},{"locationID":16018,"name":"Genesee Avenue Park","hours":"24 - Hour","latitude":34.036788,"longitude":-118.368639},{"locationID":24603,"name":"George Lane Park","hours":"7 AM - 9 PM","latitude":34.652682,"longitude":-118.228398},{"locationID":16159,"name":"George Nye Jr Library","hours":"24 - Hour","latitude":33.846192,"longitude":-118.103115},{"locationID":16086,"name":"Glassell Park Recreation and Youth Center","hours":"Hours of Operation","latitude":34.115977,"longitude":-118.233807},{"locationID":16131,"name":"Glen Alla Park","hours":"Hours of Operation","latitude":33.984616,"longitude":-118.431672},{"locationID":16204,"name":"Glendale Central Library","hours":"24 - Hour","latitude":34.143983,"longitude":-118.253094},{"locationID":16207,"name":"Glendale Sports Complex","hours":"24 - Hour","latitude":34.184016,"longitude":-118.214851},{"locationID":16283,"name":"Glendora City Hall","hours":"24 - Hour","latitude":34.135528,"longitude":-117.864718},{"locationID":16391,"name":"Gonzales Park","hours":"24 - Hour","latitude":33.904054,"longitude":-118.244265},{"locationID":16321,"name":"Graham Library","hours":"24 - Hour","latitude":33.960038,"longitude":-118.238391},{"locationID":16233,"name":"Granada Hills Branch Library","hours":"24 - Hour","latitude":34.264564,"longitude":-118.497815},{"locationID":16396,"name":"Granada Park","hours":"24 - Hour","latitude":34.067002,"longitude":-118.145776},{"locationID":16202,"name":"Grandview Branch Library","hours":"24 - Hour","latitude":34.170483,"longitude":-118.285866},{"locationID":16198,"name":"Grant Park","hours":"24 - Hour","latitude":34.142036,"longitude":-118.12588},{"locationID":16133,"name":"Grevillea Art Park","hours":"24 - Hour","latitude":33.960651,"longitude":-118.354904},{"locationID":24721,"name":"HACLA - Nickerson Gardens","hours":"24 - Hour","latitude":33.928341,"longitude":-118.253582},{"locationID":16329,"name":"HACLA-Estrada Courts","hours":"24 - Hour","latitude":34.021769,"longitude":-118.207885},{"locationID":16328,"name":"HACLA-Ramona Gardens","hours":"24 - Hour","latitude":34.056797,"longitude":-118.194452},{"locationID":16330,"name":"HACLA-William Mead Homes","hours":"24 - Hour","latitude":34.062982,"longitude":-118.230663},{"locationID":16080,"name":"Harbor Freeway C Line Station - Park and Ride Area","hours":"Hours of Operation","latitude":33.928698,"longitude":-118.281818},{"locationID":16157,"name":"Harbor Gateway Branch Library","hours":"24 - Hour","latitude":33.806887,"longitude":-118.307215},{"locationID":16107,"name":"Harbor Gateway Transit Center - Transit Plaza Area","hours":"24 - Hour","latitude":33.869357,"longitude":-118.28749},{"locationID":16164,"name":"Harbor Sports Center","hours":"Hours of Operation","latitude":33.789758,"longitude":-118.282563},{"locationID":16326,"name":"Harbor-UCLA Medical Center","hours":"24 - Hour","latitude":33.830018,"longitude":-118.291255},{"locationID":16199,"name":"Hastings Branch Library","hours":"24 - Hour","latitude":34.158284,"longitude":-118.082173},{"locationID":16161,"name":"Hawaiian Gardens City Hall","hours":"24 - Hour","latitude":33.829606,"longitude":-118.082282},{"locationID":16379,"name":"Hawthorne Library","hours":"24 - Hour","latitude":33.917423,"longitude":-118.354248},{"locationID":16109,"name":"Hawthorne Memorial Park","hours":"24 - Hour","latitude":33.916883,"longitude":-118.341132},{"locationID":16183,"name":"Heartwell Park Community Center","hours":"24 - Hour","latitude":33.830523,"longitude":-118.120134},{"locationID":16065,"name":"Helen Keller Park","hours":"6:30 AM - 9:00 PM","latitude":33.91839,"longitude":-118.292608},{"locationID":16360,"name":"Hemingway Park","hours":"24 - Hour","latitude":33.882099,"longitude":-118.262572},{"locationID":16062,"name":"Hermon Park - Also Known As Arroyo Seco Park","hours":"24 - Hour","latitude":34.105111,"longitude":-118.187427},{"locationID":16111,"name":"Hermosa Beach Library","hours":"24 - Hour","latitude":33.864129,"longitude":-118.395511},{"locationID":16363,"name":"High Desert Regional Health Center","hours":"8 AM - 9:30 PM","latitude":34.704498,"longitude":-118.124195},{"locationID":16114,"name":"Hogan Park","hours":"24 - Hour","latitude":33.879263,"longitude":-118.345916},{"locationID":16126,"name":"Hollydale Community Park","hours":"24 - Hour","latitude":33.916123,"longitude":-118.164016},{"locationID":16324,"name":"Hollywood Recreation Center","hours":"Hours of Operation","latitude":34.091651,"longitude":-118.329778},{"locationID":16319,"name":"Hollywood-Western B Line Station - Mezzanine Level","hours":"24 - Hour","latitude":34.101581,"longitude":-118.309007},{"locationID":16032,"name":"Holmby Park","hours":"Hours of Operation","latitude":34.072779,"longitude":-118.429087},{"locationID":16180,"name":"Houghton Park Community Center","hours":"24 - Hour","latitude":33.869576,"longitude":-118.183061},{"locationID":16112,"name":"Huntington Park Library","hours":"24 - Hour","latitude":33.980187,"longitude":-118.218954},{"locationID":19993,"name":"Hyatt House LA-University Medical Center","hours":"24 - Hour","latitude":34.064066,"longitude":-118.202419},{"locationID":16064,"name":"Hyde Park Miriam Matthews Branch Library","hours":"24 - Hour","latitude":33.974887,"longitude":-118.318668},{"locationID":16104,"name":"Independence Park","hours":"24 - Hour","latitude":33.919431,"longitude":-118.124627},{"locationID":16195,"name":"Jackie Robinson Community Center","hours":"24 - Hour","latitude":34.163377,"longitude":-118.150469},{"locationID":16364,"name":"Jackie Robinson Park","hours":"24 - Hour","latitude":34.572817,"longitude":-117.973274},{"locationID":16071,"name":"Jackie Tatum-Harvard Recreation Center","hours":"Hours of Operation","latitude":33.983407,"longitude":-118.304531},{"locationID":16024,"name":"Jefferson-Vassie D Wright Memorial Branch Library","hours":"24 - Hour","latitude":34.02564,"longitude":-118.319344},{"locationID":16072,"name":"Jesse Owens Park Pool","hours":"6:30 AM - 9:00 PM","latitude":33.947269,"longitude":-118.309871},{"locationID":16010,"name":"Jim Gilliam Recreation Center","hours":"Hours of Operation","latitude":34.011767,"longitude":-118.351226},{"locationID":27049,"name":"John C Fremont Branch Library","hours":"24 - Hour","latitude":34.083561,"longitude":-118.333878},{"locationID":16066,"name":"John Muir Branch Library","hours":"24 - Hour","latitude":33.981481,"longitude":-118.292452},{"locationID":16265,"name":"Joslyn Adult Center","hours":"24 - Hour","latitude":34.170137,"longitude":-118.32062},{"locationID":24595,"name":"Joslyn Adult Recreation Center","hours":"24 - Hour","latitude":34.099005,"longitude":-118.124457},{"locationID":16052,"name":"Junipero Serra Branch Library","hours":"24 - Hour","latitude":34.001838,"longitude":-118.274109},{"locationID":16325,"name":"Juntos Park","hours":"Sunrise - Sunset","latitude":34.118335,"longitude":-118.245603},{"locationID":16228,"name":"Kagel Canyon Park","hours":"24 - Hour","latitude":34.280914,"longitude":-118.38034},{"locationID":16273,"name":"Kaiser Permanente Baldwin Park Medical Center","hours":"24 - Hour","latitude":34.064879,"longitude":-117.984622},{"locationID":16106,"name":"Ken Nakaoka Community Center","hours":"24 - Hour","latitude":33.883391,"longitude":-118.306614},{"locationID":16389,"name":"Kenneth Hahn Hall of Administration - Hill Street Entrance","hours":"24 - Hour","latitude":34.056198,"longitude":-118.245117},{"locationID":16190,"name":"La Canada Flintridge Library","hours":"24 - Hour","latitude":34.202611,"longitude":-118.194088},{"locationID":16305,"name":"LA County Fire Station 117","hours":"24 - Hour","latitude":34.698938,"longitude":-118.077339},{"locationID":16308,"name":"LA County Fire Station 131","hours":"24 - Hour","latitude":34.558453,"longitude":-118.081169},{"locationID":16252,"name":"LA County Fire Station 132","hours":"24 - Hour","latitude":34.439176,"longitude":-118.417789},{"locationID":16306,"name":"LA County Fire Station 134","hours":"24 - Hour","latitude":34.668419,"longitude":-118.174723},{"locationID":16316,"name":"LA County Fire Station 143","hours":"24 - Hour","latitude":34.454587,"longitude":-118.633663},{"locationID":16309,"name":"LA County Fire Station 37","hours":"24 - Hour","latitude":34.578199,"longitude":-118.114161},{"locationID":16244,"name":"LA County Fire Station 76","hours":"24 - Hour","latitude":34.438893,"longitude":-118.610362},{"locationID":16302,"name":"LA County Fire Station 78","hours":"24 - Hour","latitude":34.673819,"longitude":-118.431658},{"locationID":16103,"name":"LA County Library Administrative Office","hours":"24 - Hour","latitude":33.927994,"longitude":-118.161127},{"locationID":16147,"name":"LA County Registrar-Recorder","hours":"24 - Hour","latitude":33.91649,"longitude":-118.067727},{"locationID":16152,"name":"LA County RRCC-Election Operations Center","hours":"24 - Hour","latitude":33.932053,"longitude":-118.062395},{"locationID":16331,"name":"LA County RRCC-Van Nuys","hours":"24 - Hour","latitude":34.184528,"longitude":-118.445929},{"locationID":16408,"name":"La Crescenta Library","hours":"24 - Hour","latitude":34.224591,"longitude":-118.240362},{"locationID":16144,"name":"La Habra Heights City Hall","hours":"24 - Hour","latitude":33.947302,"longitude":-117.964899},{"locationID":16374,"name":"La Mirada Library","hours":"24 - Hour","latitude":33.905936,"longitude":-118.010579},{"locationID":16375,"name":"La Puente Library","hours":"24 - Hour","latitude":34.019161,"longitude":-117.951173},{"locationID":16847,"name":"La Verne City Hall","hours":"24 - Hour","latitude":34.112195,"longitude":-117.765276},{"locationID":16314,"name":"Lake Los Angeles Park Association at Sorensen Community Regional Park","hours":"7 AM - 9 PM","latitude":34.605403,"longitude":-117.831496},{"locationID":16480,"name":"Lake Street Community Center","hours":"24 - Hour","latitude":34.068779,"longitude":-118.270388},{"locationID":16227,"name":"Lake View Terrace Branch Library","hours":"24 - Hour","latitude":34.272717,"longitude":-118.394102},{"locationID":26886,"name":"Lanark Park","hours":"24 - Hour","latitude":34.217447,"longitude":-118.603996},{"locationID":16212,"name":"Lazy J Ranch Park","hours":"24 - Hour","latitude":34.211949,"longitude":-118.644796},{"locationID":16011,"name":"Leimert Plaza Park","hours":"24 - Hour","latitude":34.00376,"longitude":-118.331497},{"locationID":16124,"name":"Leland R Weaver Library","hours":"24 - Hour","latitude":33.944001,"longitude":-118.201198},{"locationID":16406,"name":"Lennox Library","hours":"24 - Hour","latitude":33.93891,"longitude":-118.352425},{"locationID":16042,"name":"Lincoln Heights Branch Library","hours":"24 - Hour","latitude":34.076417,"longitude":-118.214266},{"locationID":16016,"name":"Little Tokyo Branch Library","hours":"24 - Hour","latitude":34.050192,"longitude":-118.243518},{"locationID":16132,"name":"Lloyd Taber-Marina del Rey Library","hours":"24 - Hour","latitude":33.983063,"longitude":-118.443197},{"locationID":16403,"name":"Lomita Library","hours":"24 - Hour","latitude":33.805114,"longitude":-118.319327},{"locationID":24607,"name":"Lone HIll Park","hours":"7 AM - 8 PM","latitude":34.111807,"longitude":-117.835401},{"locationID":16172,"name":"Long Beach City Hall","hours":"24 - Hour","latitude":33.768196,"longitude":-118.196511},{"locationID":16173,"name":"Long Beach Senior Center","hours":"24 - Hour","latitude":33.771655,"longitude":-118.176797},{"locationID":16344,"name":"Loren Miller Recreation Center","hours":"24 - Hour","latitude":34.030277,"longitude":-118.30294},{"locationID":16091,"name":"Los Angeles Central Library","hours":"24 - Hour","latitude":34.0508,"longitude":-118.255136},{"locationID":16017,"name":"Los Angeles Trade-Technical College","hours":"24 - Hour","latitude":34.030688,"longitude":-118.269755},{"locationID":16254,"name":"Los Angeles Valley College","hours":"24 - Hour","latitude":34.172246,"longitude":-118.415842},{"locationID":16038,"name":"Los Feliz Branch Library","hours":"24 - Hour","latitude":34.105364,"longitude":-118.287164},{"locationID":16142,"name":"Los Nietos Library","hours":"24 - Hour","latitude":33.964595,"longitude":-118.073217},{"locationID":16259,"name":"Louise Park","hours":"24 - Hour","latitude":34.200482,"longitude":-118.509694},{"locationID":16368,"name":"Lueders Park","hours":"24 - Hour","latitude":33.90305,"longitude":-118.206737},{"locationID":16855,"name":"Lugo Park","hours":"24 - Hour","latitude":33.964546,"longitude":-118.194564},{"locationID":16077,"name":"Magic Johnson Park","hours":"6:30 AM - 7:00 PM","latitude":33.919109,"longitude":-118.264022},{"locationID":16048,"name":"Malabar Branch Library","hours":"24 - Hour","latitude":34.050607,"longitude":-118.198013},{"locationID":16117,"name":"Malibu Library","hours":"24 - Hour","latitude":34.036768,"longitude":-118.688333},{"locationID":16118,"name":"Manhattan Beach Art Center","hours":"24 - Hour","latitude":33.886923,"longitude":-118.385526},{"locationID":16367,"name":"Manhattan Beach Library","hours":"24 - Hour","latitude":33.886984,"longitude":-118.410449},{"locationID":16284,"name":"Manzanita Park","hours":"24 - Hour","latitude":34.001874,"longitude":-117.972945},{"locationID":16089,"name":"Mar Vista Branch Library","hours":"24 - Hour","latitude":34.005771,"longitude":-118.428685},{"locationID":16310,"name":"Marie Kerr Park","hours":"6 AM - 10 PM","latitude":34.60348,"longitude":-118.182322},{"locationID":16175,"name":"Marina Vista Park","hours":"24 - Hour","latitude":33.768743,"longitude":-118.127619},{"locationID":16361,"name":"Marine Park","hours":"24 - Hour","latitude":34.00622,"longitude":-118.465894},{"locationID":16003,"name":"Mark Twain Branch Library","hours":"24 - Hour","latitude":33.948303,"longitude":-118.28289},{"locationID":16185,"name":"Mark Twain Neighborhood Library","hours":"24 - Hour","latitude":33.782864,"longitude":-118.17363},{"locationID":16471,"name":"Mason Recreation Center","hours":"24 - Hour","latitude":34.261743,"longitude":-118.579695},{"locationID":24598,"name":"McAdam Park","hours":"6 AM - 10 PM","latitude":34.574289,"longitude":-118.07626},{"locationID":16025,"name":"Memorial Branch Library","hours":"24 - Hour","latitude":34.056431,"longitude":-118.331358},{"locationID":27051,"name":"Metrolink-Pomona North Station","hours":"24 - Hour","latitude":34.093783,"longitude":-117.754029},{"locationID":16239,"name":"Metrolink-Santa Clarita Station","hours":"24 - Hour","latitude":34.414159,"longitude":-118.524875},{"locationID":16177,"name":"Michelle Obama Neighborhood Library","hours":"24 - Hour","latitude":33.860873,"longitude":-118.184715},{"locationID":16231,"name":"Mid-Valley Regional Library","hours":"24 - Hour","latitude":34.235417,"longitude":-118.487213},{"locationID":16168,"name":"Mills Memorial Park","hours":"24 - Hour","latitude":33.84869,"longitude":-118.247224},{"locationID":16410,"name":"Monrovia Public Library","hours":"24 - Hour","latitude":34.148039,"longitude":-118.001437},{"locationID":16139,"name":"Montana Avenue Library","hours":"24 - Hour","latitude":34.034658,"longitude":-118.491968},{"locationID":16376,"name":"Montebello Library","hours":"24 - Hour","latitude":34.020958,"longitude":-118.115289},{"locationID":16289,"name":"Monterey Park City Hall","hours":"24 - Hour","latitude":34.059721,"longitude":-118.126283},{"locationID":16191,"name":"Montrose-Crescenta Branch Library","hours":"24 - Hour","latitude":34.207314,"longitude":-118.232855},{"locationID":26883,"name":"Morgan Park","hours":"24 - Hour","latitude":34.086382,"longitude":-117.964689},{"locationID":16232,"name":"North Hills Community Park","hours":"24 - Hour","latitude":34.230752,"longitude":-118.467143},{"locationID":16266,"name":"North Hollywood Amelia Earhart Regional Library","hours":"24 - Hour","latitude":34.165931,"longitude":-118.379171},{"locationID":16136,"name":"North Hollywood B Line Station - Park and Ride Area","hours":"Hours of Operation","latitude":34.168747,"longitude":-118.376477},{"locationID":16268,"name":"North Weddington Recreation Center","hours":"24 - Hour","latitude":34.145535,"longitude":-118.365766},{"locationID":16219,"name":"Northridge Branch Library","hours":"24 - Hour","latitude":34.23497,"longitude":-118.533905},{"locationID":16218,"name":"Northridge Park Aquatic Center","hours":"Hours of Operation","latitude":34.253136,"longitude":-118.535868},{"locationID":24591,"name":"Norwalk C Line Station","hours":"Hours of Operation","latitude":33.913754,"longitude":-118.103467},{"locationID":16280,"name":"Norwood Library","hours":"24 - Hour","latitude":34.087316,"longitude":-118.015958},{"locationID":16288,"name":"Oak Mesa Park","hours":"24 - Hour","latitude":34.130574,"longitude":-117.776242},{"locationID":24594,"name":"Ocean View Park","hours":"24 - Hour","latitude":33.99978,"longitude":-118.484723},{"locationID":16411,"name":"Old Town Newhall Library","hours":"24 - Hour","latitude":34.381903,"longitude":-118.530506},{"locationID":16203,"name":"Pacific Park Library","hours":"24 - Hour","latitude":34.139882,"longitude":-118.26462},{"locationID":16222,"name":"Pacoima Branch Library","hours":"24 - Hour","latitude":34.26148,"longitude":-118.429282},{"locationID":16120,"name":"Palisades Branch Library","hours":"24 - Hour","latitude":34.044348,"longitude":-118.524863},{"locationID":16301,"name":"Palm View Park","hours":"24 - Hour","latitude":34.082351,"longitude":-117.916903},{"locationID":16398,"name":"Palms Recreation Center","hours":"24 - Hour","latitude":34.032978,"longitude":-118.417729},{"locationID":16084,"name":"Palms-Rancho Park Branch Library","hours":"24 - Hour","latitude":34.033707,"longitude":-118.417973},{"locationID":16386,"name":"Palos Verdes Estates City Hall","hours":"24 - Hour","latitude":33.799733,"longitude":-118.391729},{"locationID":16257,"name":"Panorama City Branch Library","hours":"24 - Hour","latitude":34.221786,"longitude":-118.446445},{"locationID":16291,"name":"Pantera Park","hours":"24 - Hour","latitude":34.014231,"longitude":-117.791202},{"locationID":16162,"name":"Paramount Library","hours":"24 - Hour","latitude":33.885568,"longitude":-118.161496},{"locationID":16353,"name":"Paramount Park","hours":"24 - Hour","latitude":33.90191,"longitude":-118.159716},{"locationID":16340,"name":"Pasadena City Hall","hours":"24 - Hour","latitude":34.147847,"longitude":-118.144064},{"locationID":16312,"name":"Pearblossom Park","hours":"24 - Hour","latitude":34.501649,"longitude":-117.913559},{"locationID":16163,"name":"Peck Park Community Center","hours":"24 - Hour","latitude":33.749626,"longitude":-118.308443},{"locationID":16388,"name":"Pico Canyon Park","hours":"24 - Hour","latitude":34.377673,"longitude":-118.585325},{"locationID":16475,"name":"Pico Park Community Center","hours":"24 - Hour","latitude":34.007875,"longitude":-118.073384},{"locationID":16008,"name":"Pico Union Branch Library","hours":"24 - Hour","latitude":34.051245,"longitude":-118.280037},{"locationID":16007,"name":"Pio Pico-Koreatown Branch Library","hours":"24 - Hour","latitude":34.059926,"longitude":-118.307731},{"locationID":16226,"name":"Pioneer Park","hours":"24 - Hour","latitude":34.294608,"longitude":-118.431114},{"locationID":16249,"name":"Platt Branch Library","hours":"24 - Hour","latitude":34.186357,"longitude":-118.641555},{"locationID":16092,"name":"Playa Vista Branch Library","hours":"24 - Hour","latitude":33.970073,"longitude":-118.42578},{"locationID":16070,"name":"Plummer Park","hours":"24 - Hour","latitude":34.091585,"longitude":-118.350966},{"locationID":22159,"name":"Pomona City Hall","hours":"24 - Hour","latitude":34.05474,"longitude":-117.751118},{"locationID":16220,"name":"Porter Ranch Library","hours":"24 - Hour","latitude":34.27753,"longitude":-118.559677},{"locationID":16848,"name":"Potrero Heights Park","hours":"24 - Hour","latitude":34.042866,"longitude":-118.093917},{"locationID":16170,"name":"Private James Anderson Park","hours":"24 - Hour","latitude":33.857744,"longitude":-118.235506},{"locationID":16350,"name":"Queen Anne Recreation Center","hours":"24 - Hour","latitude":34.049793,"longitude":-118.333157},{"locationID":16264,"name":"Ralph Foy Park","hours":"24 - Hour","latitude":34.185064,"longitude":-118.347123},{"locationID":16178,"name":"Ramona Park","hours":"24 - Hour","latitude":33.872511,"longitude":-118.154598},{"locationID":16121,"name":"Rancho Palos Verdes City Hall","hours":"24 - Hour","latitude":33.745347,"longitude":-118.404727},{"locationID":24597,"name":"Rancho Vista Park","hours":"6 AM - 10 PM","latitude":34.616759,"longitude":-118.193979},{"locationID":16373,"name":"Redondo Beach North Library","hours":"24 - Hour","latitude":33.872372,"longitude":-118.376645},{"locationID":16122,"name":"Redondo Beach Public Library","hours":"24 - Hour","latitude":33.845513,"longitude":-118.38796},{"locationID":16224,"name":"Reseda Recreation Center","hours":"24 - Hour","latitude":34.186748,"longitude":-118.532511},{"locationID":16357,"name":"Rimgrove Park","hours":"24 - Hour","latitude":34.031099,"longitude":-117.919946},{"locationID":16432,"name":"Rio Hondo Community College","hours":"24 - Hour","latitude":34.01977,"longitude":-118.036835},{"locationID":16853,"name":"Rio San Gabriel Park","hours":"24 - Hour","latitude":33.930793,"longitude":-118.110362},{"locationID":16380,"name":"Rivera Library","hours":"24 - Hour","latitude":33.968834,"longitude":-118.101141},{"locationID":16123,"name":"Riviera Triangle","hours":"24 - Hour","latitude":33.817965,"longitude":-118.385557},{"locationID":16029,"name":"Robert Louis Stevenson Branch Library","hours":"24 - Hour","latitude":34.02773,"longitude":-118.197976},{"locationID":16049,"name":"Robertson Branch Library","hours":"24 - Hour","latitude":34.048174,"longitude":-118.385798},{"locationID":16365,"name":"Rogers Park","hours":"24 - Hour","latitude":33.969218,"longitude":-118.359659},{"locationID":16385,"name":"Rolling Hills Estates City Hall","hours":"24 - Hour","latitude":33.78391,"longitude":-118.352915},{"locationID":24590,"name":"Roosevelt Park (formerly Florence Library)","hours":"24 - Hour","latitude":33.971199,"longitude":-118.242498},{"locationID":27022,"name":"Rosa Parks Transit Center","hours":"24 - Hour","latitude":33.928045,"longitude":-118.19995},{"locationID":16194,"name":"Rose Bowl Stadium - Near Lot I","hours":"24 - Hour","latitude":34.156258,"longitude":-118.166455},{"locationID":16116,"name":"Rose Park","hours":"24 - Hour","latitude":33.926101,"longitude":-118.217625},{"locationID":16295,"name":"Rosemead Library","hours":"24 - Hour","latitude":34.08003,"longitude":-118.077322},{"locationID":16346,"name":"Ross Snyder Recreation Center","hours":"24 - Hour","latitude":34.008632,"longitude":-118.247253},{"locationID":16287,"name":"Rowland Heights Library","hours":"24 - Hour","latitude":33.984634,"longitude":-117.888633},{"locationID":16478,"name":"Rowley Park","hours":"24 - Hour","latitude":33.91196,"longitude":-118.317521},{"locationID":16097,"name":"Roxbury Park Community Center","hours":"24 - Hour","latitude":34.057341,"longitude":-118.405966},{"locationID":16213,"name":"Runnymede Park","hours":"24 - Hour","latitude":34.205885,"longitude":-118.573379},{"locationID":16296,"name":"San Dimas Library","hours":"24 - Hour","latitude":34.107901,"longitude":-117.80335},{"locationID":16225,"name":"San Fernando City Hall","hours":"24 - Hour","latitude":34.283777,"longitude":-118.438997},{"locationID":16377,"name":"San Gabriel Library","hours":"24 - Hour","latitude":34.095562,"longitude":-118.099373},{"locationID":16859,"name":"San Julian Park","hours":"8 AM - 5 PM","latitude":34.044624,"longitude":-118.245371},{"locationID":16201,"name":"San Marino City Hall","hours":"24 - Hour","latitude":34.121666,"longitude":-118.105917},{"locationID":16318,"name":"San Pedro Regional Library","hours":"24 - Hour","latitude":33.735681,"longitude":-118.292567},{"locationID":16362,"name":"Santa Clarita Park","hours":"24 - Hour","latitude":34.446694,"longitude":-118.535216},{"locationID":16137,"name":"Santa Monica Library","hours":"24 - Hour","latitude":34.018763,"longitude":-118.492494},{"locationID":16027,"name":"Saybrook Park","hours":"24 - Hour","latitude":34.013544,"longitude":-118.136672},{"locationID":16179,"name":"Scherer Park","hours":"24 - Hour","latitude":33.842621,"longitude":-118.188644},{"locationID":16345,"name":"Sepulveda Recreation Center","hours":"24 - Hour","latitude":34.229513,"longitude":-118.457943},{"locationID":16246,"name":"Serrania Park","hours":"24 - Hour","latitude":34.157239,"longitude":-118.585932},{"locationID":16303,"name":"Sgt Steve Owen Memorial Park","hours":"24 - Hour","latitude":34.665432,"longitude":-118.149276},{"locationID":16214,"name":"Shadow Ranch Recreation Center","hours":"24 - Hour","latitude":34.194586,"longitude":-118.619416},{"locationID":16261,"name":"Sherman Oaks Martin Pollard Branch Library","hours":"24 - Hour","latitude":34.151335,"longitude":-118.443997},{"locationID":16412,"name":"Sierra Madre City Hall","hours":"24 - Hour","latitude":34.161584,"longitude":-118.057898},{"locationID":16359,"name":"Sierra Vista Park","hours":"24 - Hour","latitude":34.065418,"longitude":-118.114331},{"locationID":16342,"name":"Signal Hill Public Library","hours":"24 - Hour","latitude":33.796934,"longitude":-118.169262},{"locationID":16056,"name":"Silverlake Branch Library","hours":"24 - Hour","latitude":34.100568,"longitude":-118.259324},{"locationID":16472,"name":"Smith Park-Pico Rivera","hours":"24 - Hour","latitude":33.990674,"longitude":-118.08809},{"locationID":16323,"name":"Smith Park-San Gabriel","hours":"24 - Hour","latitude":34.098119,"longitude":-118.103015},{"locationID":16143,"name":"Sorensen Library","hours":"24 - Hour","latitude":33.979543,"longitude":-118.062604},{"locationID":16281,"name":"South El Monte Library","hours":"24 - Hour","latitude":34.044903,"longitude":-118.046477},{"locationID":16127,"name":"South Gate Civic Center","hours":"24 - Hour","latitude":33.955197,"longitude":-118.205728},{"locationID":16192,"name":"South Pasadena City Hall","hours":"24 - Hour","latitude":34.115896,"longitude":-118.152081},{"locationID":16405,"name":"South Whittier Library","hours":"24 - Hour","latitude":33.925619,"longitude":-118.024679},{"locationID":16119,"name":"Southeast YMCA-Maywood","hours":"24 - Hour","latitude":33.987603,"longitude":-118.178639},{"locationID":16852,"name":"Stearns Champions Park","hours":"24 - Hour","latitude":33.799583,"longitude":-118.139844},{"locationID":16473,"name":"Stoner Recreation Center","hours":"24 - Hour","latitude":34.039066,"longitude":-118.454229},{"locationID":16858,"name":"Strength Based Community Change SBCC","hours":"24 - Hour","latitude":33.776907,"longitude":-118.263413},{"locationID":16269,"name":"Studio City Branch Library","hours":"24 - Hour","latitude":34.150462,"longitude":-118.405703},{"locationID":16241,"name":"Sun Valley Branch Library","hours":"24 - Hour","latitude":34.215069,"longitude":-118.370554},{"locationID":16402,"name":"Sunkist Library","hours":"24 - Hour","latitude":34.055049,"longitude":-117.976808},{"locationID":16347,"name":"Sunland Recreation Center","hours":"24 - Hour","latitude":34.260419,"longitude":-118.320626},{"locationID":16193,"name":"Sunland-Tujunga Branch Library - Sherman Grove Ave Parking Lot Entrance","hours":"24 - Hour","latitude":34.258064,"longitude":-118.301369},{"locationID":16230,"name":"Sylmar Branch Library","hours":"24 - Hour","latitude":34.307212,"longitude":-118.450474},{"locationID":16229,"name":"Sylmar Park Recreation Center","hours":"24 - Hour","latitude":34.309057,"longitude":-118.445287},{"locationID":16156,"name":"T Mayne Thompson Park","hours":"24 - Hour","latitude":33.905213,"longitude":-118.125662},{"locationID":16332,"name":"Tarzana Recreation Center","hours":"Sunrise - Sunset","latitude":34.174871,"longitude":-118.550188},{"locationID":16001,"name":"Ted Watkins Memorial Park","hours":"24 - Hour","latitude":33.944433,"longitude":-118.249251},{"locationID":16298,"name":"Temple City City Hall","hours":"24 - Hour","latitude":34.107635,"longitude":-118.058151},{"locationID":27042,"name":"The Hangar Stadium","hours":"24 - Hour","latitude":34.702445,"longitude":-118.17369},{"locationID":16050,"name":"The J Los Angeles","hours":"24 - Hour","latitude":34.057287,"longitude":-118.358837},{"locationID":16267,"name":"Tiara Street Park","hours":"24 - Hour","latitude":34.178481,"longitude":-118.382523},{"locationID":16188,"name":"Tierra Verde Park","hours":"24 - Hour","latitude":34.121788,"longitude":-118.024483},{"locationID":16237,"name":"Todd Longshore Park","hours":"24 - Hour","latitude":34.431699,"longitude":-118.472261},{"locationID":16404,"name":"Topanga Library","hours":"24 - Hour","latitude":34.090204,"longitude":-118.603517},{"locationID":27020,"name":"Topanga State Park - Dead Horse Lot","hours":"6 AM - 6 PM","latitude":34.094389,"longitude":-118.601145},{"locationID":16327,"name":"Torrance Human Resources Department","hours":"24 - Hour","latitude":33.837437,"longitude":-118.342968},{"locationID":16093,"name":"UCLA Parking and Information Kiosk \u2013 Westwood Plaza","hours":"24 - Hour","latitude":34.068032,"longitude":-118.444946},{"locationID":16372,"name":"Union Station - East Customer Service","hours":"Hours of Operation","latitude":34.055732,"longitude":-118.233389},{"locationID":16141,"name":"Uptown Whittier","hours":"24 - Hour","latitude":33.980043,"longitude":-118.03726},{"locationID":19994,"name":"USC Village","hours":"24 - Hour","latitude":34.025423,"longitude":-118.284286},{"locationID":16243,"name":"Valencia Public Library","hours":"24 - Hour","latitude":34.41603,"longitude":-118.551023},{"locationID":16270,"name":"Valley Plaza Branch Library","hours":"24 - Hour","latitude":34.1941,"longitude":-118.400952},{"locationID":16258,"name":"Valley Presbyterian Hospital","hours":"24 - Hour","latitude":34.194129,"longitude":-118.463064},{"locationID":16339,"name":"Valleydale Park - Auditorium","hours":"24 - Hour","latitude":34.112389,"longitude":-117.916725},{"locationID":16253,"name":"Van Nuys Branch Library","hours":"24 - Hour","latitude":34.18375,"longitude":-118.446337},{"locationID":16262,"name":"Van Nuys-Sherman Oaks Recreation Center","hours":"24 - Hour","latitude":34.159508,"longitude":-118.442053},{"locationID":16235,"name":"Vasquez Rocks Natural Area and Nature Center","hours":"24 - Hour","latitude":34.489414,"longitude":-118.320141},{"locationID":16130,"name":"Venice-Abbot Kinney Memorial Branch Library","hours":"24 - Hour","latitude":33.987547,"longitude":-118.46491},{"locationID":16206,"name":"Verdugo Park","hours":"24 - Hour","latitude":34.17085,"longitude":-118.229313},{"locationID":16053,"name":"Vermont Square Branch Library","hours":"24 - Hour","latitude":33.999722,"longitude":-118.29608},{"locationID":16013,"name":"Vernon-Leon H Washington Jr Memorial Branch Library","hours":"24 - Hour","latitude":34.002733,"longitude":-118.256366},{"locationID":16476,"name":"Veterans Park","hours":"24 - Hour","latitude":33.8082,"longitude":-118.19256},{"locationID":16488,"name":"Veterans Park SportsComplex","hours":"24 - Hour","latitude":33.823278,"longitude":-118.281304},{"locationID":16474,"name":"Victory Park","hours":"24 - Hour","latitude":34.159968,"longitude":-118.096854},{"locationID":16271,"name":"Victory Vineland Recreation Center","hours":"24 - Hour","latitude":34.186849,"longitude":-118.372335},{"locationID":16297,"name":"Vincent Lugo Park","hours":"24 - Hour","latitude":34.084466,"longitude":-118.105301},{"locationID":16140,"name":"Virginia Avenue Park","hours":"6 AM - 11 PM","latitude":34.02131,"longitude":-118.468579},{"locationID":24593,"name":"Vista Canyon Multi-Modal Center","hours":"24 - Hour","latitude":34.414404,"longitude":-118.434765},{"locationID":16299,"name":"Walnut Library","hours":"24 - Hour","latitude":34.025959,"longitude":-117.843587},{"locationID":26881,"name":"Wardlow Park","hours":"24 - Hour","latitude":33.820528,"longitude":-118.1289},{"locationID":16023,"name":"Washington Irving Branch Library","hours":"24 - Hour","latitude":34.039995,"longitude":-118.328059},{"locationID":16196,"name":"Washington Park-Pasadena","hours":"24 - Hour","latitude":34.168494,"longitude":-118.135856},{"locationID":16292,"name":"Washington Park-Pomona","hours":"24 - Hour","latitude":34.049092,"longitude":-117.737725},{"locationID":16409,"name":"West Covina Library","hours":"24 - Hour","latitude":34.071393,"longitude":-117.940043},{"locationID":16242,"name":"West Creek Park","hours":"24 - Hour","latitude":34.456643,"longitude":-118.559071},{"locationID":16090,"name":"West Hollywood City Hall","hours":"24 - Hour","latitude":34.090254,"longitude":-118.37036},{"locationID":16413,"name":"West Hollywood Library","hours":"24 - Hour","latitude":34.08188,"longitude":-118.38354},{"locationID":16101,"name":"West Los Angeles College","hours":"24 - Hour","latitude":34.007602,"longitude":-118.386341},{"locationID":16034,"name":"West Los Angeles Regional Library","hours":"24 - Hour","latitude":34.045836,"longitude":-118.450264},{"locationID":16223,"name":"West Valley Regional Branch Library","hours":"24 - Hour","latitude":34.193777,"longitude":-118.548163},{"locationID":16067,"name":"Westchester-Loyola Village Branch Library","hours":"24 - Hour","latitude":33.959251,"longitude":-118.417274},{"locationID":24592,"name":"Westfield-MacArthur Park B and D Line Station - Mezzanine Level","hours":"Hours of Operation","latitude":34.056929,"longitude":-118.276152},{"locationID":16381,"name":"Westlake Village Library","hours":"24 - Hour","latitude":34.144214,"longitude":-118.798442},{"locationID":16854,"name":"Westmont Park","hours":"24 - Hour","latitude":34.04931,"longitude":-117.78277},{"locationID":16033,"name":"Westwood Branch Library","hours":"24 - Hour","latitude":34.057935,"longitude":-118.44191},{"locationID":16370,"name":"Whittwood Branch Library","hours":"24 - Hour","latitude":33.939486,"longitude":-117.993383},{"locationID":16069,"name":"Will and Ariel Durant Branch Library","hours":"24 - Hour","latitude":34.097657,"longitude":-118.345246},{"locationID":16079,"name":"Willowbrook Library","hours":"24 - Hour","latitude":33.926211,"longitude":-118.239217},{"locationID":16165,"name":"Wilmington Branch Library","hours":"24 - Hour","latitude":33.788967,"longitude":-118.262727},{"locationID":16006,"name":"Wilshire Branch Library","hours":"24 - Hour","latitude":34.074586,"longitude":-118.311749},{"locationID":16012,"name":"Wilshire-Vermont B and D Line Station - Courtyard Area","hours":"Hours of Operation","latitude":34.062495,"longitude":-118.290886},{"locationID":16205,"name":"Wilson Mini Park","hours":"24 - Hour","latitude":34.148333,"longitude":-118.241722},{"locationID":16470,"name":"Winnetka Recreation Center","hours":"24 - Hour","latitude":34.222166,"longitude":-118.571181},{"locationID":16108,"name":"Wiseburn Library","hours":"24 - Hour","latitude":33.909725,"longitude":-118.373522},{"locationID":26887,"name":"Woodbine Park","hours":"24 - Hour","latitude":34.028083,"longitude":-118.408368},{"locationID":16247,"name":"Woodland Hills Branch Library","hours":"24 - Hour","latitude":34.167904,"longitude":-118.610468},{"locationID":16248,"name":"Woodland Hills Recreation Center","hours":"24 - Hour","latitude":34.175686,"longitude":-118.613481},{"locationID":16074,"name":"Yvonne B Burke Senior and Community Center","hours":"6:30 AM - 9:00 PM","latitude":33.983818,"longitude":-118.359415}]